"CVE_MUN","CVE_LOC","CVE_ENT","NOM_ENT","NOM_MUN","NOM_LOC","POBTOT","deci_lon","deci_lat","tot_vulscore_ssp126","tot_vulscore_ssp585","sens_tot_score","exp_tot_score","adap_tot_score","vul_score","component","tot_score","tot_score_sc"
14020,140200001,14,"Jalisco","Cabo Corrientes","El Tuito",3835,-105.323888888889,20.3183333333333,0.20060141514534,0.213024027105376,0.194928585378809,0.580519259789167,0.261658949981922,0.513788895186054,"adaptive_capacity",0.429740683028231,0.261658949981922
14020,140200020,14,"Jalisco","Cabo Corrientes","Chacala",348,-105.468531666667,20.4297119444444,0.257162960647124,0.246503109845307,0.201125826227488,0.524816997803584,0.335503098100052,0.39043972593102,"adaptive_capacity",0.460886402818169,0.335503098100052
14020,140200021,14,"Jalisco","Cabo Corrientes","Chimo",221,-105.591988611111,20.4714569444444,0.300274593391284,0.280517218941654,0.200208015261711,0.444817328603229,0.40926883851679,0.23575650534815,"adaptive_capacity",0.491999052089194,0.40926883851679
14020,140200022,14,"Jalisco","Cabo Corrientes","El Divisadero",6,-105.372472222222,20.3820333333333,0.247079733095785,0.24901087104718,0.126543857308666,0.554894538497424,0.373336082221217,0.308102313584873,"adaptive_capacity",0.476843463090162,0.373336082221217
14020,140200034,14,"Jalisco","Cabo Corrientes","Ipala",248,-105.546449444444,20.2210233333333,0.507937205892098,0.518146443500507,0.125048075759211,0.695418517334283,0.540264061617986,0.280202531475508,"adaptive_capacity",0.54724974718833,0.540264061617986
14020,140200035,14,"Jalisco","Cabo Corrientes","Ixtlahuahuey",252,-105.524100555556,20.4455844444444,0.363202732579521,0.348289142136917,0.198787449676331,0.503769833304275,0.531831355774202,0.170725927206403,"adaptive_capacity",0.543693030779857,0.531831355774202
14020,140200041,14,"Jalisco","Cabo Corrientes","Llano Grande de Ipala",180,-105.480480277778,20.3117166666667,0.306104531273574,0.309054293926309,0.132995469115976,0.620297063981055,0.474111146373256,0.279181386723775,"adaptive_capacity",0.519348007998329,0.474111146373256
14020,140200043,14,"Jalisco","Cabo Corrientes","El Malpaso",23,-105.570722222222,20.4305333333333,0.4095194126711,0.39623314752306,0.136862337565731,0.495963246727359,0.587874457305271,0.0449511269878188,"adaptive_capacity",0.567330689022638,0.587874457305271
14020,140200057,14,"Jalisco","Cabo Corrientes","Pizota",63,-105.490888888889,20.4895055555556,0.304823167340602,0.283321425041127,0.503622803556868,0.46934238402629,0.573331163909855,0.399634023673304,"adaptive_capacity",0.561196670925607,0.573331163909855
14020,140200062,14,"Jalisco","Cabo Corrientes","Quimixto",368,-105.368173055556,20.503,0.520472760990181,0.501747349315848,0.22422740548386,0.434559199857003,0.56183266749837,0.0969539378424931,"adaptive_capacity",0.556346876373643,0.56183266749837
14020,140200064,14,"Jalisco","Cabo Corrientes","El Refugio Suchitlán (La Congregación)",188,-105.5463725,20.4430383333333,0.278294659352201,0.263802228333204,0.180865463622694,0.498195704475718,0.38681367925502,0.292247488843392,"adaptive_capacity",0.48252799560024,0.38681367925502
14020,140200066,14,"Jalisco","Cabo Corrientes","La Sauceda",141,-105.558003333333,20.4193697222222,0.364357189319132,0.35270593646395,0.157638814953712,0.520046701995872,0.512742412773251,0.164943104176333,"adaptive_capacity",0.535641764905104,0.512742412773251
14020,140200070,14,"Jalisco","Cabo Corrientes","Yelapa",882,-105.442808611111,20.4872916666667,0.116475403521048,0.0979929316294418,0.496760333652869,0.460360289718721,0.37497360174298,0.58214702162861,"adaptive_capacity",0.47753413019751,0.37497360174298
14020,140200078,14,"Jalisco","Cabo Corrientes","José María Morelos (Agua Zarca)",24,-105.584777777778,20.2892583333333,0.431401974269285,0.434859808522983,0.125048075759211,0.651569309102548,0.539552200579056,0.237065184282703,"adaptive_capacity",0.546949500993974,0.539552200579056
14020,140200079,14,"Jalisco","Cabo Corrientes","Aquiles Serdán",128,-105.622222222222,20.2999833333333,0.39448173115006,0.397450412230527,0.125048075759211,0.632026766121803,0.567730243089826,0.189344598791188,"adaptive_capacity",0.558834334642071,0.567730243089826
14020,140200082,14,"Jalisco","Cabo Corrientes","Los Corrales",219,-105.671083333333,20.4103055555556,0.131727299510623,0.11898942989121,0.498502340251272,0.447067242322706,0.417882698596248,0.527686883977731,"adaptive_capacity",0.495632175081084,0.417882698596248
14020,140200087,14,"Jalisco","Cabo Corrientes","Villa del Mar",278,-105.552712777778,20.2292952777778,0.31308444838576,0.32262819297242,0.125048075759211,0.694964448512955,0.423185217096029,0.396827307176136,"adaptive_capacity",0.497868652304857,0.423185217096029
14020,140200088,14,"Jalisco","Cabo Corrientes","Tehuamixtle (Tehualmixtle)",118,-105.575333333333,20.2381111111111,0.11811002617614,0.129188940958157,0.327779731245792,0.701568586201101,0.30561016579984,0.723738151647053,"adaptive_capacity",0.448278269108879,0.30561016579984
14020,140200092,14,"Jalisco","Cabo Corrientes","Zicatán",13,-105.410722222222,20.3149138888889,0.366869143022534,0.372869813235178,0.127908522073307,0.600453266774881,0.4050208828399,0.323340906008288,"adaptive_capacity",0.490207364588367,0.4050208828399
14020,140200097,14,"Jalisco","Cabo Corrientes","Agua Caliente",50,-105.412614166667,20.2525855555556,0.404927187107719,0.413371014081261,0.190847185484957,0.627275067696573,0.555740063007188,0.262382190174342,"adaptive_capacity",0.553777159515786,0.555740063007188
14020,140200109,14,"Jalisco","Cabo Corrientes","El Algodón",30,-105.477694444444,20.3886277777778,0.278191791500528,0.272348328083766,0.169398294539469,0.566057700979924,0.44506620284955,0.290389792669843,"adaptive_capacity",0.50709753595203,0.44506620284955
14020,140200114,14,"Jalisco","Cabo Corrientes","Tlalpuyeque",49,-105.498213888889,20.2671358333333,0.421134582603885,0.427398656996805,0.125310328784083,0.655137864908169,0.559745075643995,0.220703118048257,"adaptive_capacity",0.555466379373013,0.559745075643995
14020,140200116,14,"Jalisco","Cabo Corrientes","El Agüilote (Las Parejas)",9,-105.517944444444,20.4348194444444,0.39736026497845,0.384132095051815,0.194235703663904,0.518221626034203,0.422763159631133,0.289694170066974,"adaptive_capacity",0.497690638421944,0.422763159631133
14020,140200117,14,"Jalisco","Cabo Corrientes","Mascotita",94,-105.480972222222,20.4380277777778,0.261061929108082,0.248536099087227,0.207726346839078,0.515903307049425,0.325530885132565,0.398098768755937,"adaptive_capacity",0.456680358619865,0.325530885132565
14020,140200121,14,"Jalisco","Cabo Corrientes","Maito",167,-105.579,20.25935,0.305048998471153,0.312052818418064,0.125048075759211,0.683508368103588,0.415515383950919,0.39304105991188,"adaptive_capacity",0.494633697605522,0.415515383950919
14020,140200123,14,"Jalisco","Cabo Corrientes","Peregrina de Gómez (La Boquita)",40,-105.537194444444,20.1863111111111,0.323000642884526,0.336721659604688,0.181298075759211,0.713996322598529,0.545528037449385,0.349766360908355,"adaptive_capacity",0.54946996802375,0.545528037449385
14020,140200127,14,"Jalisco","Cabo Corrientes","Emiliano Zapata",14,-105.280268333333,20.4436619444444,0,0,0.625,0.507142572543476,0.470753246439897,0.661389326103579,"adaptive_capacity",0.517931725014879,0.470753246439897
14020,140200131,14,"Jalisco","Cabo Corrientes","Las Playitas (Adolfo López Mateos)",23,-105.670583333333,20.3428333333333,0.578049235429547,0.575334099302694,0.125234454130406,0.550952758227579,0.57585431886362,0.100332893494365,"adaptive_capacity",0.5622608781672,0.57585431886362
14020,140200155,14,"Jalisco","Cabo Corrientes","El Toro",24,-105.491638888889,20.1973555555556,0.371423946180334,0.38217830690976,0.125048075759211,0.693628221726502,0.59970097160348,0.218975325882232,"adaptive_capacity",0.572318833781712,0.59970097160348
14020,140200164,14,"Jalisco","Cabo Corrientes","La Parota (Naranjitos)",8,-105.604194444444,20.3078916666667,0.422913131321375,0.424575435974699,0.125048075759211,0.624854643003537,0.527490272004956,0.222412446757791,"adaptive_capacity",0.541862064046443,0.527490272004956
14020,140200213,14,"Jalisco","Cabo Corrientes","Graciano Sánchez",45,-105.6095,20.3157305555556,1,1,0.125048075759211,0.611562828880854,0.691756480749835,0.0448544238902303,"adaptive_capacity",0.611145676071311,0.691756480749835
14020,140200248,14,"Jalisco","Cabo Corrientes","La Puntilla de Maito",43,-105.581722222222,20.2519055555556,0.355196990438638,0.362770994353283,0.125048075759211,0.691572088070497,0.35278494964654,0.463835214183168,"adaptive_capacity",0.468175480144339,0.35278494964654
14022,140220001,14,"Jalisco","Cihuatlán","Cihuatlán",18787,-104.562997777778,19.2383433333333,0.589244954745131,0.610466457995524,0.000259991644656881,0.236655152750091,0.33636532322987,-0.099450178835123,"adaptive_capacity",0.46125006903917,0.33636532322987
14022,140220002,14,"Jalisco","Cihuatlán","El Aguacate",1056,-104.643693611111,19.2258927777778,0.60446112310943,0.603104168599998,0.0129915160286206,0.650673473530406,0.41805166679839,0.245613322760637,"adaptive_capacity",0.49570344188301,0.41805166679839
14022,140220003,14,"Jalisco","Cihuatlán","El Aguacatillo",10,-104.744852222222,19.2675477777778,0.876151289926357,0.862189778803616,0.125,0.599017177117113,0.620862898504759,0.103154278612354,"adaptive_capacity",0.581244435366661,0.620862898504759
14022,140220006,14,"Jalisco","Cihuatlán","Barra de Navidad",4266,-104.680555555556,19.2080555555556,0,0,0.529485283184919,0.665104982702675,0.176106251449478,1.01848401443812,"adaptive_capacity",0.393656572862834,0.176106251449478
14022,140220009,14,"Jalisco","Cihuatlán","Emiliano Zapata (El Ranchito)",2255,-104.718015,19.2429905555556,0.596570860443206,0.587310759743304,0.0141168408813622,0.638589937124239,0.394385084020411,0.25832169398519,"adaptive_capacity",0.485721435530806,0.394385084020411
14022,140220016,14,"Jalisco","Cihuatlán","Jaluco",3536,-104.685555555556,19.2305555555556,0.604794157168508,0.598917867548249,0.0129915160286206,0.667071254869658,0.402855006463778,0.2772077644345,"adaptive_capacity",0.489293849023092,0.402855006463778
14022,140220017,14,"Jalisco","Cihuatlán","Lázaro Cárdenas",194,-104.7090975,19.3270541666667,0.915667163582396,0.893511274440546,0.00412031685195355,0.461669142061539,0.543097180147507,-0.0773077212340137,"adaptive_capacity",0.548444689754543,0.543097180147507
14022,140220030,14,"Jalisco","Cihuatlán","El Rebalse",202,-104.592788333333,19.1879005555556,0.742431831191937,0.763558480577808,0.0017101169541648,0.649603709956108,0.539963520072315,0.111350306837957,"adaptive_capacity",0.547122985853745,0.539963520072315
14022,140220033,14,"Jalisco","Cihuatlán","San Patricio (Melaque)",6958,-104.701111111111,19.2252777777778,0.239865939692556,0.234637053359441,0.316439498197326,0.649803096619626,0.331221164779722,0.635021430037229,"adaptive_capacity",0.459080384348827,0.331221164779722
14022,140220047,14,"Jalisco","Cihuatlán","Cuastecomate",24,-104.727940833333,19.230405,0.525763891482229,0.524277476090369,0.198324042400527,0.592246294056694,0.377728108205564,0.412842228251657,"adaptive_capacity",0.478695916048246,0.377728108205564
14022,140220058,14,"Jalisco","Cihuatlán","La Paz",59,-104.714722222222,19.2916666666667,0.743837555003988,0.718334439764551,0.0124067239271974,0.580006285235825,0.492904846320624,0.0995081628423985,"adaptive_capacity",0.527274747317476,0.492904846320624
14022,140220069,14,"Jalisco","Cihuatlán","La Calera",18,-104.656873888889,19.2268777777778,0.495109997531309,0.491135036459189,0.0129915160286206,0.662087257631047,0.391426780430498,0.283651993229169,"adaptive_capacity",0.48447369285907,0.391426780430498
14022,140220102,14,"Jalisco","Cihuatlán","San Ignacio de Loyola (Colonia San Ignacio)",168,-104.670955555556,19.2288788888889,0.652024588802255,0.647171554794456,0.0129915160286206,0.664535979650385,0.542920091892466,0.13460740378654,"adaptive_capacity",0.548369998105846,0.542920091892466
14022,140220103,14,"Jalisco","Cihuatlán","Colonia el Herradero (Camino al Almolón)",24,-104.666590277778,19.2314875,0.535391634685341,0.529242276444033,0.0129915160286206,0.661320677460774,0.386790176089863,0.287522017399532,"adaptive_capacity",0.482518082519585,0.386790176089863
14022,140220107,14,"Jalisco","Cihuatlán","Los Obeliscos",30,-104.697329444444,19.2332336111111,0.824294796341969,0.819235368387139,0.0129915160286206,0.66027843203552,0.640537629669193,0.0327323183949477,"adaptive_capacity",0.589542772870799,0.640537629669193
14022,140220109,14,"Jalisco","Cihuatlán","Colonia Pinal Villa",824,-104.694156388889,19.2382730555556,0.744735250054183,0.73678993800322,0.0129915160286206,0.661304048563465,0.552663989325725,0.12163157526636,"adaptive_capacity",0.552479744197475,0.552663989325725
14022,140220120,14,"Jalisco","Cihuatlán","Santa Cecilia",12,-104.699995833333,19.2323430555556,0.367279594981161,0.359846724727322,0.264652261375367,0.663754847324731,0.426648547099919,0.501758561600179,"adaptive_capacity",0.499329403205101,0.426648547099919
14022,140220133,14,"Jalisco","Cihuatlán","Los Ingenios",415,-104.765833333333,19.2988888888889,0.89952605215389,0.880325848112285,0.113718600925544,0.570709566284654,0.636341838595992,0.048086328614206,"adaptive_capacity",0.587773087169313,0.636341838595992
14022,140220141,14,"Jalisco","Cihuatlán","Potrerito de Don Andrés",18,-104.701040833333,19.2369977777778,0.789525261110996,0.782997707133217,0.0129915160286206,0.673979963331113,0.619884233702506,0.0670872456572281,"adaptive_capacity",0.580831657638485,0.619884233702506
14022,140220147,14,"Jalisco","Cihuatlán","Santa Fe",153,-104.673611111111,19.2208333333333,1,1,0.0129915160286206,0.666066783130822,0.625565461994502,0.0534928371649408,"adaptive_capacity",0.583227865719349,0.625565461994502
14022,140220151,14,"Jalisco","Cihuatlán","Brisas de la Navidad (El Gallo Colorado)",679,-104.656065555556,19.2248133333333,0.554254438502113,0.551270503895719,0.0129915160286206,0.663056612082632,0.424675220591376,0.251372907519877,"adaptive_capacity",0.498497100631973,0.424675220591376
14022,140220157,14,"Jalisco","Cihuatlán","Rancho San José",12,-104.591622222222,19.2210361111111,0.647044588454546,0.65994366695253,0.0017101169541648,0.487027797240737,0.451197597789423,0.0375403164054787,"adaptive_capacity",0.509683613706129,0.451197597789423
14043,140430001,14,"Jalisco","La Huerta","La Huerta",7954,-104.643333333333,19.485,0.345615233928024,0.318675438789875,0.04592553013159,0.623116794481689,0.19307756255127,0.475964762062008,"adaptive_capacity",0.400814671554672,0.19307756255127
14043,140430012,14,"Jalisco","La Huerta","Arroyo Seco",327,-104.9498525,19.3321061111111,0.568956289427513,0.554765707859757,0.247540783781267,0.774718910739743,0.508536700529283,0.513722993991727,"adaptive_capacity",0.533867894687816,0.508536700529283
14043,140430015,14,"Jalisco","La Huerta","Boca de Iguanas",18,-104.818383611111,19.3078286111111,0.621377213645022,0.595443465187355,0.125,0.81538025921872,0.410278367344524,0.530101891874196,"adaptive_capacity",0.492424847535275,0.410278367344524
14043,140430033,14,"Jalisco","La Huerta","Chamela",175,-105.073793888889,19.5267719444444,0.407934991903807,0.4024559866091,0.007276170001456,0.579040549207164,0.279450523357999,0.306866195850622,"adaptive_capacity",0.437244748998455,0.279450523357999
14043,140430036,14,"Jalisco","La Huerta","Emiliano Zapata",1352,-104.965108333333,19.3840036111111,0.167214101311505,0.143461167831182,0.451411489151874,0.694455919627557,0.308837133112094,0.837030275667337,"adaptive_capacity",0.449639327801275,0.308837133112094
14043,140430039,14,"Jalisco","La Huerta","Ejido la Fortuna",248,-105.106035,19.5983361111111,0.505804925343921,0.506029359569091,0.007276170001456,0.560922407996165,0.366894707443833,0.201303870553788,"adaptive_capacity",0.474126643152616,0.366894707443833
14043,140430062,14,"Jalisco","La Huerta","La Manzanilla",1592,-104.787064166667,19.2851580555556,0.163889024648461,0.121671030010371,0.310360328957273,0.896693461078622,0.181001329757667,1.02605246027823,"adaptive_capacity",0.395721201424772,0.181001329757667
14043,140430091,14,"Jalisco","La Huerta","Quémaro",70,-105.183396388889,19.6415875,0.554274977605515,0.566755296096823,0.013606890825149,0.506359282148141,0.426732986763783,0.0932331862095074,"adaptive_capacity",0.499365017863498,0.426732986763783
14043,140430092,14,"Jalisco","La Huerta","El Rebalsito de Apazulco",574,-104.886527222222,19.3063580555556,0.145564527533861,0.112236363365623,0.592629230788035,0.745661255488426,0.374478536034764,0.963811950241697,"adaptive_capacity",0.477325323159734,0.374478536034764
14043,140430094,14,"Jalisco","La Huerta","Ejido el Rincón",271,-104.674821111111,19.4056566666667,0.421564519103116,0.390318375415143,0.291130504580677,0.686974672398589,0.339818001243853,0.638287175735413,"adaptive_capacity",0.462706327181337,0.339818001243853
14043,140430099,14,"Jalisco","La Huerta","San Mateo",818,-105.084701388889,19.5766652777778,0.318272746234042,0.311713169544155,0.191815935612269,0.567052067555988,0.32332366574102,0.435544337427237,"adaptive_capacity",0.455749405545913,0.32332366574102
14043,140430123,14,"Jalisco","La Huerta","Juan Gil Preciado",393,-105.070433333333,19.6039605555556,0.567295540187176,0.561526921491272,0.007276170001456,0.568259823280171,0.450874646041527,0.1246613472401,"adaptive_capacity",0.509547400276874,0.450874646041527
14043,140430146,14,"Jalisco","La Huerta","Pérula",1076,-105.123496944444,19.5918469444444,0,0,0.879719040544693,0.553771582721371,0.28834756745603,1.14514305581003,"adaptive_capacity",0.440997312329441,0.28834756745603
14043,140430150,14,"Jalisco","La Huerta","Santa Cruz de Otates",18,-105.0518475,19.6073125,1,1,0.007276170001456,0.57134710260697,0.699491792052793,-0.120868519444367,"adaptive_capacity",0.614408247913083,0.699491792052793
14043,140430176,14,"Jalisco","La Huerta","El Programa",103,-104.838624444444,19.3280683333333,0.473770963001516,0.443951566929359,0.125,0.767517051597745,0.41801593513342,0.474501116464325,"adaptive_capacity",0.495688371109589,0.41801593513342
14043,140430249,14,"Jalisco","La Huerta","Kilómetro Setenta y Cinco",15,-105.119746111111,19.6069688888889,0.972066903936051,0.983091054565988,0.007276170001456,0.555781982202824,0.620865711946365,-0.0578075597420848,"adaptive_capacity",0.581245622009965,0.620865711946365
14058,140580001,14,"Jalisco","Mascota","Mascota",9272,-104.782222222222,20.5255555555556,0.462090188775691,0.49805017267257,0.257681913978053,0.35677822196635,0.224935759932473,0.38952437601193,"adaptive_capacity",0.414251707717106,0.224935759932473
14058,140580006,14,"Jalisco","Mascota","El Aguacate",20,-104.999705,20.5193475,1,1,0.25,0.395795833117862,0.770869230388465,-0.125073397270603,"adaptive_capacity",0.644513567703218,0.770869230388465
14058,140580021,14,"Jalisco","Mascota","Bellavista",11,-104.778782777778,20.4530969444444,0.0434400498571652,0.0429619511245146,0.875,0.390039082984314,0.518274984226853,0.74676409875746,"adaptive_capacity",0.537975273038152,0.518274984226853
14058,140580122,14,"Jalisco","Mascota","La Palapa",56,-105.093750555556,20.6798719444444,0.782988820453024,0.766550168952992,0.283556326713005,0.426476690996548,0.718475128944092,-0.00844211123453964,"adaptive_capacity",0.622414971621894,0.718475128944092
14058,140580133,14,"Jalisco","Mascota","Santa Rosa",81,-104.686111111111,20.5394444444444,0.152605853259635,0.197290621429557,0.269925958839758,0.631042276955136,0.410407622600756,0.490560613194137,"adaptive_capacity",0.492479364353393,0.410407622600756
14058,140580163,14,"Jalisco","Mascota","San Pedro",16,-104.749956388889,20.4391116666667,0,0,0.3359375,0.572031426137824,0.216319310396872,0.691649615740952,"adaptive_capacity",0.410617492553697,0.216319310396872
14067,140670001,14,"Jalisco","Puerto Vallarta","Puerto Vallarta",224166,-105.227222222222,20.6136111111111,0,0,0.336720966062141,0.507677916036856,0.114429263689998,0.729969618408999,"adaptive_capacity",0.367642674304872,0.114429263689998
14067,140670007,14,"Jalisco","Puerto Vallarta","Boca de Tomates",5,-105.276734722222,20.6716119444444,1,1,0.408898609627309,0.507678675912404,0.800881043983612,0.115696241556101,"adaptive_capacity",0.657171842738458,0.800881043983612
14067,140670008,14,"Jalisco","Puerto Vallarta","Mismaloya",561,-105.289596944444,20.5309433333333,0.190620306118209,0.224214870680763,0.190249755336575,0.524349924924163,0.377194307473156,0.337405372787581,"adaptive_capacity",0.478470771490973,0.377194307473156
14067,140670009,14,"Jalisco","Puerto Vallarta","Boca de Tomatlán",585,-105.313932777778,20.5120588888889,0.260358126705043,0.300608035557107,0.0253342946337224,0.5433285275167,0.338388439252381,0.230274382898041,"adaptive_capacity",0.46210337165482,0.338388439252381
14067,140670024,14,"Jalisco","Puerto Vallarta","El Guayabo",17,-105.206747222222,20.7323313888889,0.869313614971501,0.890584046671124,0.0370748795796234,0.488174746758031,0.76618082403021,-0.240931197692555,"adaptive_capacity",0.642536108494643,0.76618082403021
14067,140670028,14,"Jalisco","Puerto Vallarta","Ixtapa",39083,-105.199722222222,20.7144444444444,0.136781130814446,0.14237027995877,0.25,0.478391036303374,0.342414966597135,0.385976069706239,"adaptive_capacity",0.463801665908355,0.342414966597135
14067,140670180,14,"Jalisco","Puerto Vallarta","San Pedro",28,-105.119722222222,20.5473613888889,0.440166642695802,0.521425213075171,0.022631602268699,0.545596125431914,0.503788625039504,0.0644391026611093,"adaptive_capacity",0.53186526844708,0.503788625039504
14067,140670247,14,"Jalisco","Puerto Vallarta","Los Ángeles",521,-105.161111111111,20.7638888888889,0.343417180703733,0.397935433861063,0.0217074905788211,0.486875979544851,0.462966612262445,0.0456168578612262,"adaptive_capacity",0.514647506395285,0.462966612262445
14067,140670252,14,"Jalisco","Puerto Vallarta","El Aguacate",689,-105.166191666667,20.7378916666667,0.35481124590559,0.392738617181479,0.125,0.458703853491116,0.520093149916787,0.0636107035743292,"adaptive_capacity",0.53874213243803,0.520093149916787
14067,140670257,14,"Jalisco","Puerto Vallarta","Ojo de Agua",352,-105.154055555556,20.7458694444444,0.420800074058565,0.473329635618048,0.00484306304114863,0.465644636821236,0.524047250235912,-0.0535595503735281,"adaptive_capacity",0.540409878680613,0.524047250235912
14084,140840004,14,"Jalisco","Talpa de Allende","Agua Caliente",4,-105.122559722222,20.4787919444444,0,0,0.75,0.436097775475883,0.436037145692525,0.750060629783358,"adaptive_capacity",0.503289292626775,0.436037145692525
14084,140840007,14,"Jalisco","Talpa de Allende","El Aguacate",10,-104.880524444444,20.1815247222222,1,1,0.375,0.658897124476768,0.586714759526116,0.447182364950652,"adaptive_capacity",0.566841555855135,0.586714759526116
14084,140840218,14,"Jalisco","Talpa de Allende","Los Sauces",15,-104.789481944444,20.2626097222222,0.246507211125369,0.452400655450258,0.408333333333333,0.628518807712266,0.410614552728866,0.626237588316733,"adaptive_capacity",0.49256664260022,0.410614552728866
14100,141000001,14,"Jalisco","Tomatlán","Tomatlán",9842,-105.2452725,19.941525,0.186146353905202,0.157056967460062,0.140545620808779,0.560340309342869,0.204847051319379,0.496038878832269,"adaptive_capacity",0.405778764290307,0.204847051319379
14100,141000013,14,"Jalisco","Tomatlán","El Avalito",23,-105.141663888889,19.9802863888889,0.558419158481923,0.526269105417325,0.125,0.550890488306992,0.65163848523295,0.0242520030740425,"adaptive_capacity",0.594224851893015,0.65163848523295
14100,141000029,14,"Jalisco","Tomatlán","El Coco",122,-105.296960277778,19.90726,0.293264881722284,0.272385804592156,0.00273142804524675,0.558159301932712,0.447137109245813,0.113753620732146,"adaptive_capacity",0.507970995420016,0.447137109245813
14100,141000034,14,"Jalisco","Tomatlán","La Cruz de Loreto",1819,-105.456440555556,20.0075786111111,0.186257643263195,0.164305003947558,0.303727681706451,0.486011224914496,0.343894645324259,0.445844261296689,"adaptive_capacity",0.464425759491782,0.343894645324259
14100,141000039,14,"Jalisco","Tomatlán","La Cumbre",992,-105.334511944444,19.8743936111111,0.322994499331396,0.311513595857218,0.00273142804524675,0.547493581106551,0.482909798663998,0.0673152104878002,"adaptive_capacity",0.523059071985933,0.482909798663998
14100,141000048,14,"Jalisco","Tomatlán","La Estanzuela",5,-104.9325325,19.9845286111111,0.571763112407358,0.547322100771917,0.5,0.539308149067474,0.855978652050371,0.183329497017103,"adaptive_capacity",0.680410714140941,0.855978652050371
14100,141000054,14,"Jalisco","Tomatlán","La Gloria",621,-105.369052777778,19.9437880555556,0.316013265537386,0.297122521356933,0.146004955668729,0.485578698943611,0.432792479333406,0.198791175278934,"adaptive_capacity",0.501920768893908,0.432792479333406
14100,141000058,14,"Jalisco","Tomatlán","Guayacán",54,-105.274294722222,19.9157580555556,0.445147536243175,0.422172002213496,0.00273142804524675,0.567758127431547,0.498300242922017,0.0721893125547773,"adaptive_capacity",0.529550398333637,0.498300242922017
14100,141000059,14,"Jalisco","Tomatlán","Higuera Blanca",192,-105.162341111111,19.6901027777778,0.339166735560607,0.335625451784,0.00697276421400924,0.761483068349262,0.565505352983166,0.202950479580106,"adaptive_capacity",0.557895928477312,0.565505352983166
14100,141000065,14,"Jalisco","Tomatlán","José María Morelos",3200,-105.182222222222,19.6763888888889,0,0,0.472809906301456,0.745653379537768,0.252158670001865,0.966304615837359,"adaptive_capacity",0.425733689031747,0.252158670001865
14100,141000080,14,"Jalisco","Tomatlán","Nahuapa",206,-105.318550277778,19.9210247222222,0.28245646184844,0.261535347610988,0.00273142804524675,0.534632389086578,0.41187358335304,0.125490233778784,"adaptive_capacity",0.493097672018621,0.41187358335304
14100,141000081,14,"Jalisco","Tomatlán","Malobaco",104,-105.160058055556,19.9686458333333,0.366389957513672,0.333973566028102,0.125,0.561087432593806,0.495230778472547,0.190856654121259,"adaptive_capacity",0.528255770633478,0.495230778472547
14100,141000098,14,"Jalisco","Tomatlán","Valle de Majahuas (El Poblado)",242,-105.345184444444,19.8716805555556,0.350436155731044,0.340867804874537,0.00273142804524675,0.542892256218536,0.5009049646909,0.0447187195728829,"adaptive_capacity",0.530649008533792,0.5009049646909
14100,141000100,14,"Jalisco","Tomatlán","Las Partidas",123,-105.182606111111,20.0375858333333,0.479989770859026,0.44370660758686,0.125,0.483838871104505,0.603309487415113,0.0055293836893926,"adaptive_capacity",0.573840820630919,0.603309487415113
14100,141000110,14,"Jalisco","Tomatlán","La Pintada",225,-105.318140277778,19.9004675,0.330931792855556,0.313418805893116,0.00273142804524675,0.546332833787261,0.486475845786838,0.0625884160456698,"adaptive_capacity",0.524563146543988,0.486475845786838
14100,141000115,14,"Jalisco","Tomatlán","El Portezuelo",234,-105.475581388889,20.0289930555556,0.386334080300373,0.364747358331525,0.12767094017094,0.468704333016298,0.512834854352024,0.0835404188352143,"adaptive_capacity",0.535680754582455,0.512834854352024
14100,141000122,14,"Jalisco","Tomatlán","El Realito",184,-105.517169166667,20.1841388888889,0.539003397112206,0.507530462596302,0.00272489462564705,0.381804816592024,0.656337914220502,-0.271808203002831,"adaptive_capacity",0.596206960186619,0.656337914220502
14100,141000159,14,"Jalisco","Tomatlán","Tequesquite",1224,-105.299985555556,20.0654961111111,0.170842564345242,0.132389349214762,0.25,0.471034879970998,0.39503344604625,0.326001433924748,"adaptive_capacity",0.485994899339298,0.39503344604625
14100,141000189,14,"Jalisco","Tomatlán","José María Pino Suárez (Nuevo Nahuapa)",3160,-105.327777777778,19.9488888888889,0.150358032179499,0.12524879289775,0.305737757159171,0.511505742122768,0.317036163906702,0.500207335375237,"adaptive_capacity",0.453097485586093,0.317036163906702
14100,141000215,14,"Jalisco","Tomatlán","Los Diques",114,-105.153669444444,20.0123527777778,0.344313210850727,0.309421290931398,0.125,0.518774590683526,0.446050863836211,0.197723726847315,"adaptive_capacity",0.507512842729346,0.446050863836211
14100,141000230,14,"Jalisco","Tomatlán","López Mateos",30,-105.489055555556,20.199025,0.51757875021421,0.483631568635766,0.00272489462564705,0.371713570646795,0.588042461598941,-0.213603996326499,"adaptive_capacity",0.567401549270708,0.588042461598941
14100,141000235,14,"Jalisco","Tomatlán","El Corrido",329,-105.076550555556,20.0721483333333,0.453632863427841,0.41864806135489,0.118600973443894,0.521624724679628,0.609040794176509,0.0311849039470126,"adaptive_capacity",0.576258150628891,0.609040794176509
14100,141000261,14,"Jalisco","Tomatlán","Presa Cajón de Peña (La Presa)",116,-105.140870833333,20.00277,0.0995666446572095,0.0632283348160194,0.50883347769959,0.530769732528717,0.448164396210788,0.591438814017519,"adaptive_capacity",0.508404280829495,0.448164396210788
14100,141000267,14,"Jalisco","Tomatlán","El Divisadero",16,-105.099624444444,20.0861330555556,0.764645964383551,0.730778492813634,0.0875045667965285,0.508415857631275,0.780886213317096,-0.184965788889292,"adaptive_capacity",0.648738494815068,0.780886213317096
14100,141000272,14,"Jalisco","Tomatlán","Las Lomas (Las Lomas de Malobaco)",7,-105.144124444444,19.9771052777778,0.587916189993289,0.55600839649405,0.125,0.553802479292075,0.615979419064145,0.0628230602279305,"adaptive_capacity",0.579184698933464,0.615979419064145
14100,141000276,14,"Jalisco","Tomatlán","Las Pilitas",70,-105.213096666667,20.0131525,0.530561044977631,0.495863663176886,0.125,0.497176227850284,0.568004029180685,0.0541721986695992,"adaptive_capacity",0.558949811156942,0.568004029180685
14100,141000303,14,"Jalisco","Tomatlán","Los Ángeles",42,-105.340805555556,19.8982180555556,0.246464464486351,0.230734674306063,0.00273142804524675,0.533377759654341,0.355948397734449,0.180160789965139,"adaptive_capacity",0.469509747926241,0.355948397734449
14100,141000408,14,"Jalisco","Tomatlán","Rancho el Pino",6,-105.290119166667,19.9054222222222,0.493566307130007,0.473794976555304,0.00273142804524675,0.563469111744446,0.549137675930007,0.0170628638596867,"adaptive_capacity",0.550992428388254,0.549137675930007
14100,141000482,14,"Jalisco","Tomatlán","Rancho de los Castellanos",19,-105.339129444444,19.8591622222222,0.335745964290137,0.327435296619484,0.00273142804524675,0.550992600118586,0.50614797481081,0.0475760533530225,"adaptive_capacity",0.53286038652666,0.50614797481081
14100,141000488,14,"Jalisco","Tomatlán","Ninguno [Sociedad de Productores Agropecuarios del Valle de Tomatlán]",8,-105.346451388889,19.8967966666667,0.314239133523559,0.299801791174307,0.00273142804524675,0.531213618882591,0.473686806884821,0.0602582400430163,"adaptive_capacity",0.519169031611717,0.473686806884821
14100,141000509,14,"Jalisco","Tomatlán","Mariano Otero",6,-105.429166666667,19.9227777777778,1,1,0.00273142804524675,0.48423768143674,0.7370044040366,-0.250035294554613,"adaptive_capacity",0.630230182774695,0.7370044040366
18001,180010001,18,"Nayarit","Acaponeta","Acaponeta",19976,-105.360184166667,22.4893875,0.218999090695241,0.206967443716372,0.0294265618742491,0.440857859925515,0.223207766515489,0.247076655284276,"adaptive_capacity",0.413522880854913,0.223207766515489
18001,180010004,18,"Nayarit","Acaponeta","El Aguaje",476,-105.5159825,22.5035616666667,0.310437302508657,0.297102156809982,0.0285189075630252,0.499344726754958,0.518637972100081,0.00922566221790166,"adaptive_capacity",0.538128372760673,0.518637972100081
18001,180010011,18,"Nayarit","Acaponeta","Buenavista (Las Paredes)",264,-105.452758888889,22.4645275,0.420494388399264,0.401101185530617,0.000906514153461766,0.47609997548345,0.61416212146385,-0.137155631826939,"adaptive_capacity",0.578418205673319,0.61416212146385
18001,180010016,18,"Nayarit","Acaponeta","El Tejón (El Cantón)",351,-105.556230555556,22.4837897222222,0.385825620704347,0.369387623923251,0.0595441595441595,0.517745392833928,0.596155679819352,-0.018866127441265,"adaptive_capacity",0.570823513335935,0.596155679819352
18001,180010038,18,"Nayarit","Acaponeta","El Guayabo",22,-105.457013055556,22.6314569444444,0.537543326472716,0.532231451399146,0.000906514153461766,0.485105844558557,0.713792443500676,-0.227780084788658,"adaptive_capacity",0.62043992536025,0.713792443500676
18001,180010039,18,"Nayarit","Acaponeta","Hacienda Vieja",24,-105.432153888889,22.575835,0.429774356862972,0.421003312892813,0.00166519124730392,0.467200517088273,0.483482366085126,-0.0146166577495486,"adaptive_capacity",0.523300567418053,0.483482366085126
18001,180010070,18,"Nayarit","Acaponeta","La Palma",48,-105.43082,22.5532338888889,0.399861229947351,0.389372725984179,0.014823651362355,0.465047879193486,0.557547359166928,-0.0776758286110874,"adaptive_capacity",0.554539434404226,0.557547359166928
18001,180010094,18,"Nayarit","Acaponeta","San Miguel",663,-105.284351666667,22.3339261111111,0.133171954932778,0.108968968717286,0.276835614683278,0.468190866829276,0.381909733174401,0.363116748338153,"adaptive_capacity",0.48045962682107,0.381909733174401
18001,180010096,18,"Nayarit","Acaponeta","Santa Cruz",240,-105.1185425,22.4681005555556,0.37541193986635,0.374098661427291,0.151166437700738,0.527680529748638,0.623889232532757,0.0549577349166183,"adaptive_capacity",0.582520871672433,0.623889232532757
18001,180010098,18,"Nayarit","Acaponeta","Sayulilla",2318,-105.3903625,22.4376758333333,0.349885590482769,0.329869621969408,0.0128613028472821,0.467971316983717,0.522156012296242,-0.0413233924652424,"adaptive_capacity",0.539612199129475,0.522156012296242
18001,180010105,18,"Nayarit","Acaponeta","Valle de la Urraca (El Cabildo)",178,-105.634749166667,22.5712513888889,0,0,0.367320912753306,0.587132595429741,0.475312442702898,0.479141065480149,"adaptive_capacity",0.519854686453172,0.475312442702898
18001,180010115,18,"Nayarit","Acaponeta","Chalpa",67,-105.664292222222,22.5278225,0.158586411988342,0.153876167091509,0.39023631840796,0.589598529374224,0.720865023566439,0.258969824215746,"adaptive_capacity",0.62342297279913,0.720865023566439
18001,180010138,18,"Nayarit","Acaponeta","Zacatecas",43,-105.069884722222,22.5884422222222,0.547011016927875,0.564601600264875,0.153100775193798,0.526907294493502,0.765137782692603,-0.0851297130053018,"adaptive_capacity",0.642096178262413,0.765137782692603
18001,180010159,18,"Nayarit","Acaponeta","Rancho Viejo",12,-105.047274722222,22.4709077777778,1,1,0.336662931598564,0.474844458895777,1,-0.188492609505658,"adaptive_capacity",0.741155521432,1
18001,180010185,18,"Nayarit","Acaponeta","Las Higueras",28,-105.2534675,22.490755,0.468298378630753,0.455737242448605,0.00475438923504738,0.391300610554569,0.650399021485115,-0.254344021695499,"adaptive_capacity",0.593702075321498,0.650399021485115
18001,180010301,18,"Nayarit","Acaponeta","El Carrizal",68,-105.086166388889,22.6046455555556,0.483648069895565,0.500623873499081,0.0637254901960784,0.529436306437822,0.733262155188207,-0.140100358554307,"adaptive_capacity",0.62865179048517,0.733262155188207
18004,180040001,18,"Nayarit","Compostela","Compostela",20322,-104.900597222222,21.2375297222222,0.362388855963272,0.395041485273041,0.131747613423876,0.523674895438973,0.254365920407789,0.40105658845506,"adaptive_capacity",0.426664655186833,0.254365920407789
18004,180040020,18,"Nayarit","Compostela","Los Ayala",618,-105.285835555556,21.0251352777778,0.413359376455771,0.410732067000307,0.130731919432717,0.496755763692902,0.318647842661414,0.308839840464204,"adaptive_capacity",0.453777253667449,0.318647842661414
18004,180040065,18,"Nayarit","Compostela","Chacala",346,-105.226070833333,21.1663163888889,0.123227075398423,0.114148737056855,0.440761117767917,0.441339670026641,0.273236652725197,0.60886413506936,"adaptive_capacity",0.434623884942571,0.273236652725197
18004,180040071,18,"Nayarit","Compostela","El Divisadero",129,-105.211186111111,21.1348775,0.626995892467934,0.622996877089344,0.0856357050400778,0.423697399046888,0.522059685533362,-0.0127265814463963,"adaptive_capacity",0.539571570773114,0.522059685533362
18004,180040083,18,"Nayarit","Compostela","Ixtapa de la Concepción",1412,-105.156120555556,21.3049269444444,0.587998481522208,0.577183838874341,0.00239809597550959,0.58195124977483,0.483489550754062,0.100859794996278,"adaptive_capacity",0.523303597741934,0.483489550754062
18004,180040089,18,"Nayarit","Compostela","Juan Escutia (Borbollón)",1097,-104.865845833333,21.1666319444444,0.28266193445561,0.321787459598578,0.25,0.487394969325064,0.453119663301015,0.284275306024049,"adaptive_capacity",0.510494295599923,0.453119663301015
18004,180040093,18,"Nayarit","Compostela","Lima de Abajo",929,-105.194630833333,21.0993119444444,0.537957673656238,0.538362783463417,0.0322508679190721,0.413171257151344,0.447131000003241,-0.00170887493282423,"adaptive_capacity",0.507968418685609,0.447131000003241
18004,180040106,18,"Nayarit","Compostela","Mezcales",9,-105.039710833333,21.2825672222222,0.748662694055492,0.754062662860363,0.254373010816269,0.512365531228806,0.700781425150689,0.065957116894386,"adaptive_capacity",0.614952184733027,0.700781425150689
18004,180040120,18,"Nayarit","Compostela","Pajaritos",14,-105.031721666667,21.2866675,0.612873110879409,0.619547244528817,0.126913398316415,0.5136388626559,0.432556188934199,0.207996072038116,"adaptive_capacity",0.501821107177302,0.432556188934199
18004,180040125,18,"Nayarit","Compostela","Paso de las Palmas",458,-105.139737222222,21.1962033333333,0.519598217841238,0.517719435787104,0.0262797483407241,0.440552387278404,0.434614566915185,0.0322175687039433,"adaptive_capacity",0.502689282455254,0.434614566915185
18004,180040128,18,"Nayarit","Compostela","La Peñita de Jaltemba",10593,-105.249545,21.0406038888889,0,0,0.418998875237149,0.473064789374978,0.362786801270859,0.529276863341267,"adaptive_capacity",0.472394025228958,0.362786801270859
18004,180040137,18,"Nayarit","Compostela","Platanitos",45,-105.239064166667,21.3526144444444,0.795016462212604,0.771727108567862,0.0359680293769802,0.698146507209961,0.608314931544498,0.125799605042443,"adaptive_capacity",0.575951998892853,0.608314931544498
18004,180040141,18,"Nayarit","Compostela","La Puerta de la Lima",719,-105.181945,21.0960286111111,0.616689823548832,0.617913480328033,0.0228195453053392,0.401213758468855,0.47032703123747,-0.0462937274632755,"adaptive_capacity",0.517751957496351,0.47032703123747
18004,180040154,18,"Nayarit","Compostela","Rincón de Guayabitos",2777,-105.265997777778,21.0242733333333,0.475379073324549,0.474309287402224,0.0661185167955573,0.481243919148807,0.358749393431711,0.188613042512654,"adaptive_capacity",0.470691141839543,0.358749393431711
18004,180040186,18,"Nayarit","Compostela","Las Varas",14419,-105.135262777778,21.1752244444444,0.515743512844228,0.515500685653499,0.0092139372978349,0.425175641396678,0.369685371830335,0.0647042068641782,"adaptive_capacity",0.475303679562742,0.369685371830335
18004,180040191,18,"Nayarit","Compostela","Zacualpan",4887,-105.165361944444,21.2508638888889,0.346219532665601,0.337095685862712,0.243230231915039,0.523992078044936,0.350994693278166,0.41622761668181,"adaptive_capacity",0.467420392237951,0.350994693278166
18004,180040315,18,"Nayarit","Compostela","Buenavista",140,-105.163755833333,21.2366766666667,0.562106656199987,0.554516009941117,0.0863204608209046,0.508357278291534,0.459653599745132,0.135024139367306,"adaptive_capacity",0.513250155865088,0.459653599745132
18004,180040322,18,"Nayarit","Compostela","Paraíso Escondido [Colonia]",2990,-105.238330555556,21.0535461111111,0.496259055074554,0.496665349336715,0.024817490961706,0.468906288363702,0.386895851451583,0.106827927873825,"adaptive_capacity",0.482562653894416,0.386895851451583
18004,180040325,18,"Nayarit","Compostela","San Isidro",257,-105.165680555556,21.2737263888889,0.516886815216686,0.506886495622506,0.0509628407397306,0.547803176315204,0.429629378048536,0.169136639006399,"adaptive_capacity",0.500586647385347,0.429629378048536
18004,180040340,18,"Nayarit","Compostela","Las Calabazas",12,-105.169795833333,21.1209936111111,0.675446620556423,0.67562553613526,0.0351991346499067,0.428567111006316,0.494739731412282,-0.0309734857560596,"adaptive_capacity",0.528048658566612,0.494739731412282
18004,180040426,18,"Nayarit","Compostela","Los Llanitos",9,-105.159738333333,21.1839666666667,0.654926953579017,0.65146493313204,0.0998921507275152,0.423896836676567,0.519370151178781,0.00441883622530115,"adaptive_capacity",0.538437188624928,0.519370151178781
18004,180040455,18,"Nayarit","Compostela","Las Lomitas",22,-105.1603675,21.3147855555556,0.912386713952314,0.89944249327893,0.000313261578308995,0.598180927959108,0.665391388538833,-0.0668971990014164,"adaptive_capacity",0.600025502094544,0.665391388538833
18004,180040496,18,"Nayarit","Compostela","La Esperanza",20,-105.205,21.0822222222222,0.538302100254798,0.539705152132607,0.0220237178910157,0.442479315651128,0.460385873927387,0.0041171596147565,"adaptive_capacity",0.513559011841779,0.460385873927387
18004,180040512,18,"Nayarit","Compostela","La Noria",14,-105.236850555556,21.0367369444444,0.653996238299855,0.654823057077522,0.00361273384714097,0.463562034215964,0.596549228788081,-0.129374460724976,"adaptive_capacity",0.570989503007643,0.596549228788081
18004,180040518,18,"Nayarit","Compostela","Piedra Bola",77,-105.226116666667,21.0400222222222,1,1,0.00378963720461145,0.457845134345661,0.609938410942331,-0.148303639392059,"adaptive_capacity",0.576636744207116,0.609938410942331
18004,180040572,18,"Nayarit","Compostela","Reserva Natural del Palmar (El Suspiro) [Colonia]",136,-105.226704166667,21.0684811111111,0.598686308538782,0.598922311412514,0.0155892069316904,0.465459012236974,0.458559305408469,0.0224889137601944,"adaptive_capacity",0.512788608326847,0.458559305408469
18004,180040594,18,"Nayarit","Compostela","Las Palmas",12,-105.223744166667,21.0699525,0.460907152157858,0.461964172081518,0.0163219022287436,0.464371775136017,0.351179047951493,0.129514629413268,"adaptive_capacity",0.467498148690476,0.351179047951493
18004,180040626,18,"Nayarit","Compostela","Chacalilla",15,-105.228490833333,21.1697375,0.518623210635525,0.511406437626234,0.125,0.450870432239133,0.404037064862147,0.171833367376986,"adaptive_capacity",0.489792413372322,0.404037064862147
18004,180040637,18,"Nayarit","Compostela","Nuevo Amanecer",9,-105.150112222222,21.2782502777778,0.725372644701144,0.716212036698444,0.0174118799512686,0.545771668246078,0.497945573455919,0.0652379747414283,"adaptive_capacity",0.529400807119022,0.497945573455919
18004,180040648,18,"Nayarit","Compostela","Los Laureles",12,-105.210069722222,21.1640088888889,0.635151118150393,0.628965752364741,0.124099999090341,0.425987658431961,0.52634026700569,0.0237473905166117,"adaptive_capacity",0.541377019064857,0.52634026700569
18004,180040697,18,"Nayarit","Compostela","El Cordoncillo",23,-105.218083333333,21.0551522222222,0.756291209456926,0.757426023151038,0.00628833116019209,0.457659804069859,0.534190200592018,-0.0702420653619662,"adaptive_capacity",0.544687935881966,0.534190200592018
18004,180040712,18,"Nayarit","Compostela","Las Palmas",7,-104.88814,21.2335219444444,0.70421067122382,0.739512138036484,0.0163219022287436,0.528237835584924,0.482628566337462,0.0619311714762052,"adaptive_capacity",0.522940454824501,0.482628566337462
18004,180040757,18,"Nayarit","Compostela","Las Baleadas",18,-105.229110833333,21.0551225,0.684571966186048,0.685117894719923,0.00744101372511336,0.463410442686304,0.543491240856363,-0.0726397844449453,"adaptive_capacity",0.548610895266165,0.543491240856363
18008,180080005,18,"Nayarit","Xalisco","El Carrizal",367,-104.931944444444,21.3783333333333,0.495409207475946,0.498163524624496,0.00318060246863972,0.40881999000932,0.572371363554247,-0.160370771076287,"adaptive_capacity",0.560791849776039,0.572371363554247
18008,180080028,18,"Nayarit","Xalisco","San Antonio",163,-105.065408055556,21.3704886111111,0.535287691298803,0.541886035825236,0.0150318477986748,0.41619687868362,0.703671236757454,-0.272442510275158,"adaptive_capacity",0.616171039101908,0.703671236757454
18010,180100001,18,"Nayarit","Rosamorada","Rosamorada",3718,-105.204130277778,22.1225452777778,0.510182306374261,0.518249870878443,0.308583485909157,0.366605986529351,0.366220997480224,0.308968474958284,"adaptive_capacity",0.473842488181898,0.366220997480224
18010,180100003,18,"Nayarit","Rosamorada","Los Arrayanes",322,-105.113937222222,22.0979533333333,0.912360805556058,0.923795498217645,0.125,0.263767610700265,0.72489251988595,-0.336124909185685,"adaptive_capacity",0.625121675743362,0.72489251988595
18010,180100008,18,"Nayarit","Rosamorada","Colonias 18 de Marzo",1283,-105.309279444444,22.0457972222222,0.598357684352794,0.586440876251449,0.0875523894062786,0.645162477205239,0.618505281045212,0.114209585566305,"adaptive_capacity",0.580250047935318,0.618505281045212
18010,180100010,18,"Nayarit","Rosamorada","Chilapa",1808,-105.229919166667,22.0315663888889,0.733897512134845,0.723822114963546,0.0508123156697258,0.54227553940974,0.585953900744879,0.0071339543345873,"adaptive_capacity",0.566520643568867,0.585953900744879
18010,180100014,18,"Nayarit","Rosamorada","Llano del Tigre",1008,-105.304411111111,22.1271433333333,0.391140505419727,0.399247780842157,0.345085980672354,0.564552196487799,0.359193075422868,0.550445101737285,"adaptive_capacity",0.470878276437539,0.359193075422868
18010,180100016,18,"Nayarit","Rosamorada","El Mil",64,-105.230154444444,22.1364891666667,0.714881123785237,0.717345137144563,0.125,0.394433995121671,0.508188205667294,0.0112457894543775,"adaptive_capacity",0.533720907775564,0.508188205667294
18010,180100017,18,"Nayarit","Rosamorada","Minitas",153,-105.185602777778,22.0705163888889,0.989325173700848,0.985046904517018,0.125,0.419065119298887,0.594930643609691,-0.0508655243108043,"adaptive_capacity",0.570306821959692,0.594930643609691
18010,180100020,18,"Nayarit","Rosamorada","Paramita",912,-105.194087777778,22.1392655555556,1,1,0.125,0.333701512906142,0.716442130060141,-0.257740617153999,"adaptive_capacity",0.621557500648412,0.716442130060141
18010,180100021,18,"Nayarit","Rosamorada","Paso Real del Bejuco",533,-105.187534444444,22.0193811111111,0.678037711208913,0.677558325770604,0.109599749843652,0.472758973282578,0.594271502819074,-0.0119127796928439,"adaptive_capacity",0.570028811922474,0.594271502819074
18010,180100022,18,"Nayarit","Rosamorada","Pericos",2065,-105.354418888889,22.0492255555556,0.389911589167411,0.381772706573387,0.335233845954048,0.687634413031302,0.436647430877356,0.586220828107993,"adaptive_capacity",0.503546696521912,0.436647430877356
18010,180100023,18,"Nayarit","Rosamorada","Pescadero",897,-105.326449444444,22.1879213888889,0.468051210968897,0.488805515312123,0.399005945745076,0.532850411765954,0.409410699686728,0.522445657824302,"adaptive_capacity",0.492058885784356,0.409410699686728
18010,180100024,18,"Nayarit","Rosamorada","Las Pilas",732,-105.164048055556,22.0339572222222,0.755041856230645,0.756769564929271,0.00457317262110252,0.409373467028897,0.632247691632866,-0.218301051982867,"adaptive_capacity",0.586046272555807,0.632247691632866
18010,180100025,18,"Nayarit","Rosamorada","Pimientillo",1506,-105.410821111111,22.0161216666667,0,0,0.68720978791688,0.735127732171411,0.377863222707042,1.04447429738125,"adaptive_capacity",0.478752904157796,0.377863222707042
18010,180100027,18,"Nayarit","Rosamorada","Providencia",357,-105.242640555556,22.1683180555556,0.799071504656286,0.806722274714901,0.125,0.385752207613046,0.6631842834553,-0.152432075842254,"adaptive_capacity",0.599094597233015,0.6631842834553
18010,180100034,18,"Nayarit","Rosamorada","Santa Fe",539,-105.072878611111,22.0361913888889,0.846160243115851,0.860236445609226,0.121817557575939,0.292979974961138,0.673106207705651,-0.258308675168573,"adaptive_capacity",0.603279430836675,0.673106207705651
18010,180100035,18,"Nayarit","Rosamorada","San Vicente",4758,-105.297783611111,21.9486375,0.601055061217688,0.58552027003645,0.0114812751107071,0.67458051158259,0.48290046267641,0.203161324016887,"adaptive_capacity",0.523055134286593,0.48290046267641
18010,180100039,18,"Nayarit","Rosamorada","Vicente Guerrero (El Mogote)",555,-105.378390277778,22.0022233333333,0.555140205146395,0.541709506833831,0.0323852922690132,0.716097750223713,0.520641359423738,0.227841683068988,"adaptive_capacity",0.538973354276521,0.520641359423738
18010,180100041,18,"Nayarit","Rosamorada","Zomatlán del Caimanero",970,-105.263288055556,22.1242819444444,0.655588500123404,0.655780341294634,0.203994845360825,0.479976959294717,0.578810029360114,0.105161775295427,"adaptive_capacity",0.563507527133299,0.578810029360114
18010,180100047,18,"Nayarit","Rosamorada","Francisco Villa",869,-105.330389722222,22.2208933333333,0.511175378732989,0.53789709094401,0.585370545817635,0.510938520385582,0.626303189240936,0.470005876962281,"adaptive_capacity",0.58353902166988,0.626303189240936
18010,180100063,18,"Nayarit","Rosamorada","San Miguelito",635,-105.322101111111,22.1085333333333,0.566691337308038,0.56602316529296,0.265984557162913,0.616383657620943,0.449510071536957,0.432858143246899,"adaptive_capacity",0.508971854939363,0.449510071536957
18010,180100118,18,"Nayarit","Rosamorada","Crucero Providencia",22,-105.248416388889,22.1672719444444,0.885425063187362,0.889479691538597,0.125,0.398813352840533,0.711718576125669,-0.187905223285137,"adaptive_capacity",0.619565217021274,0.711718576125669
18012,180120001,18,"Nayarit","San Blas","San Blas",10935,-105.286046388889,21.5417380555556,0,0,0.51649203900883,0.746522514649886,0.226966843710504,1.03604770994821,"adaptive_capacity",0.415108370944086,0.226966843710504
18012,180120003,18,"Nayarit","San Blas","Aticama",1569,-105.196662777778,21.4836716666667,0.632169195605483,0.6343557284848,0.00968808279824115,0.500426323972336,0.45906547842752,0.0510489283430577,"adaptive_capacity",0.513002100166327,0.45906547842752
18012,180120004,18,"Nayarit","San Blas","Aután",1647,-105.307118888889,21.6898927777778,0.662793106424938,0.654361096119769,0.00500999455917487,0.592100120776938,0.507133307417802,0.0899768079183114,"adaptive_capacity",0.53327597657759,0.507133307417802
18012,180120005,18,"Nayarit","San Blas","La Bajada",450,-105.158089166667,21.5038738888889,0.679298523845645,0.683751793652049,0.000413256248066726,0.425753617565775,0.497376249684676,-0.0712093758708346,"adaptive_capacity",0.529160679781911,0.497376249684676
18012,180120006,18,"Nayarit","San Blas","Boca del Asadero",139,-105.425155833333,21.6429994444444,0.422663758940061,0.411435392608381,0.460093066462996,0.741417855885756,0.587348791263394,0.614162131085358,"adaptive_capacity",0.567108975485945,0.587348791263394
18012,180120009,18,"Nayarit","San Blas","Laureles y Góngora (El Ciruelo)",549,-105.36649,21.6589308333333,0.649668625667796,0.637243126753789,0.0149805764538734,0.674972691736214,0.543185390050157,0.14676787813993,"adaptive_capacity",0.548481894610726,0.543185390050157
18012,180120011,18,"Nayarit","San Blas","El Cora",392,-105.114110277778,21.4296741666667,0.758034662453361,0.769878639142556,0.000403622384536062,0.330334519691484,0.587541069061567,-0.256802926985547,"adaptive_capacity",0.567190073725634,0.587541069061567
18012,180120013,18,"Nayarit","San Blas","La Culebra",335,-105.287914444444,21.7109355555556,0.632206757005592,0.626827463293182,0.0035480067196485,0.531306305377722,0.479937189248833,0.0549171228485373,"adaptive_capacity",0.521805295454562,0.479937189248833
18012,180120014,18,"Nayarit","San Blas","Chacalilla",536,-105.267537777778,21.6188525,0.502113665736844,0.497296840901607,0.268293783985064,0.68002980446442,0.550569923707787,0.397753664741697,"adaptive_capacity",0.551596516716082,0.550569923707787
18012,180120016,18,"Nayarit","San Blas","La Chiripa",371,-105.311641388889,21.6253625,0.417622314789584,0.410826232852686,0.274098125946689,0.716446274580158,0.324249052644673,0.666295347882175,"adaptive_capacity",0.456139711913214,0.324249052644673
18012,180120017,18,"Nayarit","San Blas","El Espino",75,-105.188246111111,21.3705583333333,0.879296467995276,0.884907467882883,0.0325352295338978,0.320120057902941,0.657647136490779,-0.30499184905394,"adaptive_capacity",0.596759159257391,0.657647136490779
18012,180120019,18,"Nayarit","San Blas","Guadalupe Victoria",3066,-105.327046666667,21.679675,0.636256713996167,0.626138581090096,0.0376930051361904,0.61962410276124,0.489288735134208,0.168028372763222,"adaptive_capacity",0.52574955691835,0.489288735134208
18012,180120024,18,"Nayarit","San Blas","Las Islitas",28,-105.248222222222,21.5161480555556,0.837398546709439,0.829174523294132,0.0951314924286691,0.67502780008796,0.528963693543118,0.241195598973511,"adaptive_capacity",0.542483518495164,0.528963693543118
18012,180120026,18,"Nayarit","San Blas","Jolotemba",298,-105.187564444444,21.3965866666667,0.703909655556879,0.710502592076687,0.0119354169732476,0.355296089147134,0.576853901915274,-0.209622395794892,"adaptive_capacity",0.562682478719538,0.576853901915274
18012,180120027,18,"Nayarit","San Blas","Laureles y Góngora (El Limón)",457,-105.386670555556,21.6550013888889,0.582542750792952,0.570280106530487,0.0531761742247699,0.693794452186264,0.491051472885598,0.255919153525436,"adaptive_capacity",0.526493038121223,0.491051472885598
18012,180120029,18,"Nayarit","San Blas","El Llano",1259,-105.178010277778,21.4188613888889,0.645093777220001,0.652174247836159,0.000413256248066726,0.390402200378853,0.506209344101791,-0.115393887474871,"adaptive_capacity",0.532886270645976,0.506209344101791
18012,180120030,18,"Nayarit","San Blas","El Madrigaleño",834,-105.332250555556,21.6861844444444,0.726215749355552,0.714691134259988,0.00427489177489176,0.611925775970092,0.596857728625108,0.0193429391198756,"adaptive_capacity",0.571119620961795,0.596857728625108
18012,180120031,18,"Nayarit","San Blas","Matanchén (La Aguada)",65,-105.247222222222,21.5308333333333,0.685667486563503,0.679655960208073,0.00125152068381467,0.682326944838718,0.417419580824422,0.266158884698111,"adaptive_capacity",0.495436842929267,0.417419580824422
18012,180120035,18,"Nayarit","San Blas","La Palma",1222,-105.179465833333,21.4904025,0.661243801095571,0.664393064936678,0.00063980474341702,0.462860731240136,0.43828570013747,0.0252148358460834,"adaptive_capacity",0.504237679851212,0.43828570013747
18012,180120036,18,"Nayarit","San Blas","Las Palmas",180,-105.15924,21.6237277777778,0.662828570156376,0.666512785717092,0.0163219022287436,0.45950849838133,0.463083826627609,0.0127465739824643,"adaptive_capacity",0.514696944649578,0.463083826627609
18012,180120037,18,"Nayarit","San Blas","Pimientillo",317,-105.352225277778,21.6808669444444,0.566200147375873,0.555742976096275,0.0882042166829433,0.635741591246456,0.434122961828894,0.289822846100506,"adaptive_capacity",0.502481935026174,0.434122961828894
18012,180120039,18,"Nayarit","San Blas","Playa de los Cocos",163,-105.190194444444,21.4666444444444,0.644057051668338,0.647393003765393,0.00122940866497308,0.467610607118919,0.432552808331526,0.0362872074523653,"adaptive_capacity",0.501819681318839,0.432552808331526
18012,180120043,18,"Nayarit","San Blas","Santa Cruz de Miramar",1722,-105.197788611111,21.43257,0.607245298921221,0.612353842279016,0.0250871712022493,0.438388001619082,0.485774496069126,-0.0222993232477947,"adaptive_capacity",0.524267333776974,0.485774496069126
18012,180120044,18,"Nayarit","San Blas","Singaita",134,-105.228479444444,21.5746327777778,0.849764192820154,0.842016020992644,0.000435368266908313,0.637909699572435,0.570395110586675,0.0679499572526684,"adaptive_capacity",0.559958312891524,0.570395110586675
18012,180120045,18,"Nayarit","San Blas","Tecuitata",382,-105.145581111111,21.4518858333333,0.732237508209749,0.739506949098177,0.000413256248066726,0.384740997389478,0.567954038550164,-0.182799784912619,"adaptive_capacity",0.558928726288201,0.567954038550164
18012,180120059,18,"Nayarit","San Blas","La Manzanilla",18,-105.190633333333,21.4416527777778,0.712198938616785,0.71551241466711,0.00122940866497308,0.439776408836166,0.514850060999161,-0.0738442434980214,"adaptive_capacity",0.536530721210144,0.514850060999161
18012,180120070,18,"Nayarit","San Blas","Costa Verde",10,-105.179276388889,21.4241380555556,0.669947953363964,0.676103510491308,0.000413256248066726,0.397965355914197,0.503832182735053,-0.105453570572789,"adaptive_capacity",0.531883640055594,0.503832182735053
18012,180120073,18,"Nayarit","San Blas","Bahía de Matanchén",70,-105.200358333333,21.4981936111111,0.604843550635647,0.606513422347543,0.103541829015194,0.523835526777401,0.426378648519953,0.200998707272642,"adaptive_capacity",0.499215566350623,0.426378648519953
18012,180120134,18,"Nayarit","San Blas","Crucero a los Cocos",13,-105.188640555556,21.4322797222222,0.969055125432198,0.968986153521045,0.000641846452123052,0.418074585551587,0.593708439608192,-0.174992007604482,"adaptive_capacity",0.569791325142044,0.593708439608192
18012,180120184,18,"Nayarit","San Blas","El Cuatro",5,-105.241801111111,21.5555308333333,0.88714927214482,0.877873272518844,0.000661916762258607,0.669729245357894,0.526616976855145,0.143774185265008,"adaptive_capacity",0.541493728752136,0.526616976855145
18012,180120188,18,"Nayarit","San Blas","Lo de Don Nico (Tía Pancha)",17,-105.187473055556,21.4587458333333,0.640925680704111,0.644823264250766,0.00117088461369828,0.457445161974071,0.489337535463429,-0.0307214888756599,"adaptive_capacity",0.52577013974608,0.489337535463429
18012,180120215,18,"Nayarit","San Blas","La Reata",10,-105.185523333333,21.4399469444444,0.554540309950673,0.561008642224327,0.000525196459662985,0.424515823018979,0.382821432985807,0.0422195864928347,"adaptive_capacity",0.480844160295722,0.382821432985807
18012,180120224,18,"Nayarit","San Blas","Crucero del Llano",3,-105.1834425,21.4269263888889,1,1,0.000413256248066726,0.40699335190863,0.602326061520412,-0.194919453363716,"adaptive_capacity",0.573426034786257,0.602326061520412
18015,180150001,18,"Nayarit","Santiago Ixcuintla","Santiago Ixcuintla",18023,-105.206044444444,21.8083358333333,0,0,0.394145328550049,0.428102559781981,0.201237654941533,0.621010233390497,"adaptive_capacity",0.404256406039043,0.201237654941533
18015,180150002,18,"Nayarit","Santiago Ixcuintla","Acaponetilla",414,-105.073205833333,21.8661458333333,0.47510953386956,0.451292114013547,2.8824282994052e-05,0.346792722894504,0.466384906176812,-0.119563358999315,"adaptive_capacity",0.516089262135309,0.466384906176812
18015,180150004,18,"Nayarit","Santiago Ixcuintla","Amapa",2351,-105.256400833333,21.7831925,0.436091650206633,0.40149437204598,0.00440134452386632,0.463050020203429,0.434349499332187,0.0331018653951079,"adaptive_capacity",0.502577483201341,0.434349499332187
18015,180150006,18,"Nayarit","Santiago Ixcuintla","Aztlán de las Garzas",415,-105.391833055556,21.8257625,0.436569162210489,0.394874328834457,0.0387566164079371,0.53999045667485,0.467880572655895,0.110866500426893,"adaptive_capacity",0.516720098975382,0.467880572655895
18015,180150007,18,"Nayarit","Santiago Ixcuintla","Boca de Camichín",1314,-105.49019,21.7454472222222,0.108702928901185,0.0880903664232213,0.46634547172354,0.556593914422484,0.314607860265851,0.708331525880173,"adaptive_capacity",0.45207328439087,0.314607860265851
18015,180150009,18,"Nayarit","Santiago Ixcuintla","Campo de los Limones",601,-105.419350277778,21.8041119444444,0.4334941493242,0.390856510954859,0.132371333045316,0.549288213890617,0.458455768163776,0.223203778772157,"adaptive_capacity",0.512744938759343,0.458455768163776
18015,180150013,18,"Nayarit","Santiago Ixcuintla","El Capomal",1541,-105.121795,21.8396038888889,0.462596144377942,0.435519609432939,2.8824282994052e-05,0.381156762273333,0.434785948557805,-0.0536003620014782,"adaptive_capacity",0.502761567189444,0.434785948557805
18015,180150014,18,"Nayarit","Santiago Ixcuintla","Caramota",134,-105.043587222222,21.8815886111111,0.497753002552232,0.474832396604808,2.8824282994052e-05,0.339995491153226,0.541975162781756,-0.201950847345537,"adaptive_capacity",0.547971449296583,0.541975162781756
18015,180150018,18,"Nayarit","Santiago Ixcuintla","El Colomo",43,-104.983611111111,21.7963888888889,0.492122206634603,0.473874397256179,0.12986109216481,0.348592681010757,0.573648351277442,-0.0951945781018742,"adaptive_capacity",0.561330453075222,0.573648351277442
18015,180150021,18,"Nayarit","Santiago Ixcuintla","Los Corchos",766,-105.472358055556,21.7336697222222,0.418632867835475,0.379924207612913,0.121446234592752,0.559562930224222,0.464995970550541,0.216013194266433,"adaptive_capacity",0.515503441851312,0.464995970550541
18015,180150023,18,"Nayarit","Santiago Ixcuintla","Corral de Piedra",191,-105.018104166667,21.8218944444444,0.558593191329202,0.531553889696215,2.8824282994052e-05,0.343630592059281,0.637768445250554,-0.294109028908279,"adaptive_capacity",0.588374796204434,0.637768445250554
18015,180150025,18,"Nayarit","Santiago Ixcuintla","Palmar de Cuautla",1043,-105.647247777778,22.2202461111111,0.000767288514342844,0.010150831211691,0.537671856654565,0.452028044791955,0.477622695894331,0.512077205552189,"adaptive_capacity",0.520829096753485,0.477622695894331
18015,180150026,18,"Nayarit","Santiago Ixcuintla","Emerita",156,-105.015928611111,21.8832113888889,0.565636901295826,0.541524077333836,2.8824282994052e-05,0.343899366463924,0.642213430089632,-0.298285239342714,"adaptive_capacity",0.590249585958213,0.642213430089632
18015,180150030,18,"Nayarit","Santiago Ixcuintla","Las Higueras",195,-105.088129444444,21.7531227777778,0.520938608432289,0.488141442101489,8.2297970876782e-05,0.384295405691761,0.534893169056151,-0.150515465393513,"adaptive_capacity",0.544984431398036,0.534893169056151
18015,180150031,18,"Nayarit","Santiago Ixcuintla","La Higuerita (La Escondida)",965,-105.543050833333,21.8981316666667,0.452093346111539,0.410957267199499,0.0672694819312119,0.555423973790138,0.592560424595173,0.0301330311261772,"adaptive_capacity",0.569307119489716,0.592560424595173
18015,180150035,18,"Nayarit","Santiago Ixcuintla","Las Labores",514,-105.572777777778,21.905,0.55269336356352,0.50606539113277,0.0123137515421847,0.529264236975871,0.574104993166941,-0.0325270046488854,"adaptive_capacity",0.561523053852632,0.574104993166941
18015,180150036,18,"Nayarit","Santiago Ixcuintla","El Limón",758,-105.319954722222,21.8418369444444,0.45329530198778,0.413456874824236,0.021699964204866,0.502929704695524,0.478773596195155,0.0458560727052353,"adaptive_capacity",0.521314519352149,0.478773596195155
18015,180150037,18,"Nayarit","Santiago Ixcuintla","Mayorquín",672,-105.565060555556,21.9052466666667,0.542535910601118,0.496303468565085,0.00518716124661245,0.537516751872698,0.557442528752908,-0.0147386156335984,"adaptive_capacity",0.554495219408404,0.557442528752908
18015,180150038,18,"Nayarit","Santiago Ixcuintla","Mexcaltitán de Uribe",706,-105.475406388889,21.9060897222222,0.37717017454955,0.336909609723314,0.121329663446951,0.581054196488754,0.374451518963318,0.327932340972386,"adaptive_capacity",0.477313927996295,0.374451518963318
18015,180150040,18,"Nayarit","Santiago Ixcuintla","Mojarritas",660,-105.060870833333,21.7528413888889,0.476290275001136,0.449370752563811,8.2297970876782e-05,0.370586768510414,0.474558657626094,-0.103889591144803,"adaptive_capacity",0.519536757688574,0.474558657626094
18015,180150041,18,"Nayarit","Santiago Ixcuintla","Estación Nanchi (Peñasquillo)",752,-105.063576666667,21.7992763888889,0.430835075800341,0.409436046833011,8.2297970876782e-05,0.360880455591205,0.424087150892036,-0.0631243973299542,"adaptive_capacity",0.498249066704582,0.424087150892036
18015,180150042,18,"Nayarit","Santiago Ixcuintla","El Novillero",260,-105.256398055556,21.8231405555556,0.438376727774234,0.402271046275385,0.0759418338281792,0.462051510335009,0.496094644972979,0.0418986991902089,"adaptive_capacity",0.528620129145886,0.496094644972979
18015,180150044,18,"Nayarit","Santiago Ixcuintla","Los Otates",953,-105.376113055556,21.7030555555556,0.522968944708129,0.475975696033479,0.00452530971756591,0.525116713416903,0.524058178371276,0.00558384476319329,"adaptive_capacity",0.540414487910329,0.524058178371276
18015,180150045,18,"Nayarit","Santiago Ixcuintla","Vado del Cora (Estación Pani)",617,-105.006363333333,21.7375722222222,0.493627193756763,0.469538205170518,5.347368788273e-05,0.356302722468521,0.516261986417746,-0.159905790261341,"adaptive_capacity",0.53712623804624,0.516261986417746
18015,180150046,18,"Nayarit","Santiago Ixcuintla","Pantano Grande",533,-105.148434166667,21.8666055555556,0.46800417598262,0.439874539577883,1.66950222631537e-05,0.391732193490007,0.485139896804523,-0.0933910082922526,"adaptive_capacity",0.523999674776526,0.485139896804523
18015,180150048,18,"Nayarit","Santiago Ixcuintla","Las Parejas",262,-105.037441111111,21.8814227777778,0.464829659467042,0.445657011418153,2.8824282994052e-05,0.343754338582309,0.528799486250798,-0.185016323385495,"adaptive_capacity",0.542414259732698,0.528799486250798
18015,180150057,18,"Nayarit","Santiago Ixcuintla","Puerta de Palapares",925,-105.629927777778,22.1047547222222,0.513136868851138,0.479504896301427,0.030388774080762,0.488818366848382,0.449594362357663,0.069612778571481,"adaptive_capacity",0.509007406819228,0.449594362357663
18015,180150059,18,"Nayarit","Santiago Ixcuintla","Rancho Nuevo",788,-105.560247222222,21.8953580555556,0.494088867089084,0.449922453428695,0.0796367245614902,0.539622764958997,0.647304365417995,-0.0280448758975074,"adaptive_capacity",0.592396822391251,0.647304365417995
18015,180150060,18,"Nayarit","Santiago Ixcuintla","Redención",225,-105.04245,21.8525783333333,0.451919868518805,0.432612137786531,2.8824282994052e-05,0.34834706097001,0.43844706532486,-0.0900711800718567,"adaptive_capacity",0.50430573988086,0.43844706532486
18015,180150062,18,"Nayarit","Santiago Ixcuintla","San Andrés",849,-105.570722222222,21.9132047222222,0.542770303655811,0.496178643526573,0.0388785088235258,0.533815666081039,0.55426893264802,0.0184252422565448,"adaptive_capacity",0.553156671432318,0.55426893264802
18015,180150063,18,"Nayarit","Santiago Ixcuintla","San Isidro",524,-105.174826388889,21.7951594444444,0.493420825212,0.458729102220261,0.0204388171518976,0.413607722796915,0.479614282339722,-0.0455677423909093,"adaptive_capacity",0.521669100937248,0.479614282339722
18015,180150065,18,"Nayarit","Santiago Ixcuintla","San Miguel Número Dos (El Quemado)",710,-105.390901944444,21.8286608333333,0.436217549349802,0.394706257293537,0.028815819369921,0.539727529987423,0.449157671300742,0.119385678056602,"adaptive_capacity",0.508823220832386,0.449157671300742
18015,180150066,18,"Nayarit","Santiago Ixcuintla","Santa Cruz",1226,-105.601375555556,21.9809369444444,0.453794343626589,0.418475613013747,0.0324135907347791,0.526705190467209,0.436467444061974,0.122651337140014,"adaptive_capacity",0.503470782328836,0.436467444061974
18015,180150067,18,"Nayarit","Santiago Ixcuintla","Santa Rosa",320,-105.378283611111,21.7036336111111,0.477321673057346,0.434402966951435,0.000534518383638714,0.526211104374003,0.415613078708012,0.111132544049629,"adaptive_capacity",0.494674902949573,0.415613078708012
18015,180150069,18,"Nayarit","Santiago Ixcuintla","Sentispac",2424,-105.347164722222,21.8057061111111,0.460844075333903,0.419728257869741,0.00145353712200487,0.513583585917568,0.443011055668347,0.0720260673712256,"adaptive_capacity",0.506230723349216,0.443011055668347
18015,180150071,18,"Nayarit","Santiago Ixcuintla","El Tambor",653,-105.035114166667,21.7464675,0.521040954907012,0.492240713816678,8.2297970876782e-05,0.372256745992337,0.560373931158001,-0.188034887194787,"adaptive_capacity",0.555731615794946,0.560373931158001
18015,180150073,18,"Nayarit","Santiago Ixcuintla","El Tizate",1404,-105.117594444444,21.8010077777778,0.480398047547638,0.450687424646377,2.8824282994052e-05,0.387411013879485,0.494865895070553,-0.107426056908074,"adaptive_capacity",0.528101871421636,0.494865895070553
18015,180150074,18,"Nayarit","Santiago Ixcuintla","Toro Mocho",364,-105.450463611111,21.7529983333333,0.47985980792746,0.43471766039327,0.129344417543063,0.557487507073411,0.47936817745264,0.207463747163834,"adaptive_capacity",0.521565299701167,0.47936817745264
18015,180150078,18,"Nayarit","Santiago Ixcuintla","Valle Lerma",935,-105.103248611111,21.8120241666667,0.435412376014526,0.411216246546037,2.8824282994052e-05,0.377391453032563,0.41707720783021,-0.0396569305146525,"adaptive_capacity",0.495292438076437,0.41707720783021
18015,180150081,18,"Nayarit","Santiago Ixcuintla","Villa Juárez",2722,-105.387085555556,21.6918908333333,0.43774095687489,0.397597435841828,0.0188856481178502,0.529712478601997,0.423825203951404,0.124772922768443,"adaptive_capacity",0.498138583664007,0.423825203951404
18015,180150082,18,"Nayarit","Santiago Ixcuintla","Yago",4365,-105.065889722222,21.8352677777778,0.439275380607847,0.418341147482972,2.8824282994052e-05,0.354173785619078,0.37415738118237,-0.0199547712802974,"adaptive_capacity",0.477189867618614,0.37415738118237
18015,180150083,18,"Nayarit","Santiago Ixcuintla","Playa el Sesteo",126,-105.488046111111,21.7246972222222,0.448419275582278,0.406880364273398,0.134327281683344,0.559558086703308,0.492217597397977,0.201667770988675,"adaptive_capacity",0.526984881933201,0.492217597397977
18015,180150085,18,"Nayarit","Santiago Ixcuintla","Hacienda Vieja",60,-105.000727222222,21.8500880555556,0.588802203823827,0.563109300057853,2.8824282994052e-05,0.334056768286932,0.589708166080045,-0.255622573510119,"adaptive_capacity",0.568104104129061,0.589708166080045
18015,180150150,18,"Nayarit","Santiago Ixcuintla","Crucero Bonfil",16,-105.110956666667,21.8157736111111,0.598963426127525,0.560859834147639,2.8824282994052e-05,0.379759021053366,0.639031944899352,-0.259244099562992,"adaptive_capacity",0.588907710552003,0.639031944899352
18015,180150151,18,"Nayarit","Santiago Ixcuintla","Crucero las Higueras",31,-105.082387222222,21.75283,0.475004449481266,0.447147520516003,8.2297970876782e-05,0.380288758231026,0.490524293008142,-0.110153236806239,"adaptive_capacity",0.526270686084391,0.490524293008142
18015,180150152,18,"Nayarit","Santiago Ixcuintla","Crucero de Villa Hidalgo",138,-105.102361111111,21.8054888888889,0.603925468440465,0.564498691947193,2.8824282994052e-05,0.378923884802896,0.521686543364354,-0.142733834278464,"adaptive_capacity",0.539414188208159,0.521686543364354
18015,180150328,18,"Nayarit","Santiago Ixcuintla","Los Pérez",8,-105.417571111111,21.8066219444444,0.738379285133863,0.673208799109965,0.0830770078889994,0.548706445807689,0.641541389574343,-0.00975793587765428,"adaptive_capacity",0.589966135121416,0.641541389574343
18015,180150365,18,"Nayarit","Santiago Ixcuintla","Colonia Vado del Cora",73,-105.013751666667,21.7386958333333,0.709563950820104,0.665826058298258,5.347368788273e-05,0.361959940334584,0.6200302605384,-0.258016846515933,"adaptive_capacity",0.580893248313284,0.6200302605384
18015,180150391,18,"Nayarit","Santiago Ixcuintla","El Manguito",155,-104.8897675,21.8646486111111,0.807996703685202,0.778085481040087,5.12023247239302e-05,0.301211763984529,0.744002501394751,-0.442739535085498,"adaptive_capacity",0.633181815164455,0.744002501394751
18015,180150393,18,"Nayarit","Santiago Ixcuintla","Las Higueras",27,-104.887187222222,21.8775733333333,1,1,8.2297970876782e-05,0.426953436682497,0.872221771611144,-0.44518603695777,"adaptive_capacity",0.687261678817857,0.872221771611144
18016,180160001,18,"Nayarit","Tecuala","Tecuala",13620,-105.456033888889,22.3950411111111,0,0,0.445952209042223,0.454804395882453,0.223710620324408,0.677045984600267,"adaptive_capacity",0.413734972729856,0.223710620324408
18016,180160002,18,"Nayarit","Tecuala","Agua Verde (El Salto)",462,-105.434425555556,22.4307441666667,0.298392155503152,0.304842378318101,0.000906514153461766,0.387535734913886,0.394427655483218,-0.00598540641587014,"adaptive_capacity",0.485739391169613,0.394427655483218
18016,180160004,18,"Nayarit","Tecuala","Antonio R. Laureles",459,-105.429295555556,22.2371655555556,0.348991166018263,0.342418152980138,0.101200219016694,0.596307024408873,0.56253734997627,0.134969893449297,"adaptive_capacity",0.556644094820289,0.56253734997627
18016,180160005,18,"Nayarit","Tecuala","Arenitas",221,-105.652652777778,22.4904019444444,0.177058189673331,0.187741557009159,0.44367568136378,0.653685473950077,0.555678210619952,0.541682944693906,"adaptive_capacity",0.553751071637866,0.555678210619952
18016,180160006,18,"Nayarit","Tecuala","El Arrayán",846,-105.409971944444,22.3351627777778,0.299780684027738,0.299833881468457,0.00585518720105557,0.471290426138431,0.422856238413476,0.054289374926011,"adaptive_capacity",0.497729896856731,0.422856238413476
18016,180160007,18,"Nayarit","Tecuala","Atotonilco",757,-105.484475833333,22.3881769444444,0.303423518112166,0.30716971798808,0.000906514153461766,0.492617423667252,0.441508506659961,0.052015431160753,"adaptive_capacity",0.505596983620633,0.441508506659961
18016,180160008,18,"Nayarit","Tecuala","Camalotita",1218,-105.431720277778,22.40467,0.304215016257249,0.309060147699732,0.000906514153461766,0.415801176436246,0.415529842026784,0.00117784856292424,"adaptive_capacity",0.494639795680875,0.415529842026784
18016,180160011,18,"Nayarit","Tecuala","La Cofradía",43,-105.482109444444,22.3972172222222,0.317489538615895,0.322035686199572,0.000906514153461766,0.478854327958246,0.469527826695772,0.0102330154159364,"adaptive_capacity",0.517414871872846,0.469527826695772
18016,180160014,18,"Nayarit","Tecuala","Chocota",8,-105.588345555556,22.3934475,0.325537393674092,0.331195542969357,0.000906514153461766,0.578710219457899,0.475563993246503,0.104052740364857,"adaptive_capacity",0.519960784538719,0.475563993246503
18016,180160016,18,"Nayarit","Tecuala","El Filo",930,-105.457341666667,22.3804427777778,0.294850572127878,0.29780182122275,0.00383224558631996,0.472963383173244,0.412669544662494,0.0641260840970705,"adaptive_capacity",0.493433389723268,0.412669544662494
18016,180160018,18,"Nayarit","Tecuala","El Guayabo",40,-105.553011388889,22.394685,0.344139562919131,0.349662722428482,0.000906514153461766,0.547613314511294,0.561958749300254,-0.0134389206354981,"adaptive_capacity",0.556400054703574,0.561958749300254
18016,180160020,18,"Nayarit","Tecuala","Huajuquilla",406,-105.513855833333,22.4368302777778,0.297573359939031,0.304574252253231,0.000906514153461766,0.471015800127217,0.459209562938,0.0127127513426788,"adaptive_capacity",0.513062871614083,0.459209562938
18016,180160023,18,"Nayarit","Tecuala","El Limón",856,-105.44717,22.3051141666667,0.291660151061155,0.289040327985846,0.0170771667593378,0.54980861537183,0.410234167676732,0.156651614454435,"adaptive_capacity",0.492406205158013,0.410234167676732
18016,180160024,18,"Nayarit","Tecuala","Las Lumbres",232,-105.346039166667,22.2597,0.293182022315465,0.287859853625205,0.0969237140359885,0.451600772224423,0.49670975523682,0.0518147310235908,"adaptive_capacity",0.528879568145532,0.49670975523682
18016,180160026,18,"Nayarit","Tecuala","La Magdalena",53,-105.344663055556,22.2538908333333,0.335175194675876,0.330424492271164,0.00970820535322508,0.458582251368493,0.554886951356266,-0.0865964946345483,"adaptive_capacity",0.553417337145208,0.554886951356266
18016,180160028,18,"Nayarit","Tecuala","Milpas Viejas",1574,-105.476376666667,22.3655308333333,0.286890757188243,0.288724265929546,0.00382457213047188,0.512612596274891,0.376460840207175,0.139976328198187,"adaptive_capacity",0.47816141229971,0.376460840207175
18016,180160029,18,"Nayarit","Tecuala","Los Morillos",423,-105.521136388889,22.2691888888889,0.246010695116901,0.240155539588929,0.275055271780154,0.619706313588593,0.475441768263987,0.41931981710476,"adaptive_capacity",0.51990923292422,0.475441768263987
18016,180160030,18,"Nayarit","Tecuala","El Naranjito",32,-105.475508333333,22.3994197222222,0.271297095646052,0.275170388474755,0.000906514153461766,0.469424808182285,0.363853826871506,0.106477495464241,"adaptive_capacity",0.472844071457581,0.363853826871506
18016,180160031,18,"Nayarit","Tecuala","Novillero",921,-105.661344722222,22.3819655555556,0.232223498741275,0.237225938310341,0.104098050319662,0.637723622553647,0.310582870422436,0.431238802450874,"adaptive_capacity",0.450375638619131,0.310582870422436
18016,180160032,18,"Nayarit","Tecuala","Pajaritos",709,-105.528529444444,22.4576580555556,0.291906419271377,0.300333523164326,0.0198598869429851,0.475591965116976,0.354699531992284,0.140752320067677,"adaptive_capacity",0.468983005815296,0.354699531992284
18016,180160036,18,"Nayarit","Tecuala","Paso Hondo",507,-105.561245,22.3959225,0.282426928495848,0.287217540808101,0.0103459118309048,0.553025280027256,0.393127815771659,0.170243376086502,"adaptive_capacity",0.485191149440786,0.393127815771659
18016,180160038,18,"Nayarit","Tecuala","Playa Novillero",248,-105.683428333333,22.3783308333333,0.17635006346098,0.18108129337922,0.301619970569066,0.645267553520393,0.413269182989171,0.533618341100288,"adaptive_capacity",0.493686303024782,0.413269182989171
18016,180160039,18,"Nayarit","Tecuala","La Presa",1103,-105.395052222222,22.3435030555556,0.312284825410305,0.313368513125926,0.00292278985430854,0.43951283759127,0.401812600909996,0.0406230265355821,"adaptive_capacity",0.488854186949483,0.401812600909996
18016,180160041,18,"Nayarit","Tecuala","Quimichis",3084,-105.538660833333,22.3624505555556,0.286354244617193,0.288646766646493,0.00766907513474589,0.562345958888555,0.397761764391643,0.172253269631658,"adaptive_capacity",0.487145639659945,0.397761764391643
18016,180160043,18,"Nayarit","Tecuala","Río Viejo",905,-105.534569722222,22.3936533333333,0.29166813234877,0.296080396750644,0.0158301451558557,0.532838921879169,0.438675992761778,0.109993074273246,"adaptive_capacity",0.504402296073655,0.438675992761778
18016,180160044,18,"Nayarit","Tecuala","El Roblito",220,-105.670636666667,22.507695,0.274231228570752,0.286952607173038,0.232505285412262,0.692064147847579,0.541130188066785,0.383439245193056,"adaptive_capacity",0.54761505889365,0.541130188066785
18016,180160046,18,"Nayarit","Tecuala","San Cayetano",796,-105.684961388889,22.4518872222222,0.305241401472054,0.316147692322175,0.0867817853405355,0.659169519965691,0.452204550946245,0.293746754359981,"adaptive_capacity",0.510108322794977,0.452204550946245
18016,180160047,18,"Nayarit","Tecuala","San Felipe Aztatán",4546,-105.416931111111,22.3851797222222,0.29664514032613,0.300194204295781,0.0115078760387584,0.419837511851077,0.361093720830699,0.0702516670591363,"adaptive_capacity",0.471679923836838,0.361093720830699
18016,180160048,18,"Nayarit","Tecuala","Tecualilla",9,-105.646245,22.4627325,0.723120726762835,0.742187429556691,0.0302663005083594,0.624442345667159,0.768621620834743,-0.113912974659224,"adaptive_capacity",0.64356557901161,0.768621620834743
18016,180160049,18,"Nayarit","Tecuala","El Tecomate",49,-105.558039444444,22.4611855555556,0.353804551079292,0.363773746181839,0.000906514153461766,0.517020973895741,0.513458363796797,0.0044691242524062,"adaptive_capacity",0.535943736158493,0.513458363796797
18016,180160054,18,"Nayarit","Tecuala","Puerta del Río",36,-105.642854444444,22.3858730555556,0.313185205671019,0.319336842450261,0.0237403100775194,0.627447050399953,0.428377388723228,0.222809971754245,"adaptive_capacity",0.500058587820713,0.428377388723228
18016,180160079,18,"Nayarit","Tecuala","El Macho (Pozo de Higueras II)",690,-105.476263888889,22.2867666666667,0.334245602137571,0.330862967882568,0.0250912786346978,0.59037366531841,0.43827514878508,0.177189795168028,"adaptive_capacity",0.504233229539666,0.43827514878508
18016,180160091,18,"Nayarit","Tecuala","Las Anonas",64,-105.3598725,22.2614758333333,0.30082501605207,0.295836991848513,0.0127180232558139,0.471957112119827,0.434804627784941,0.0498705075906992,"adaptive_capacity",0.502769445646831,0.434804627784941
18016,180160108,18,"Nayarit","Tecuala","La Puntilla",112,-105.723207222222,22.4694219444444,0.380056133990894,0.394170577709943,0.125,0.70795562352741,0.636941524122455,0.196014099404955,"adaptive_capacity",0.588026020378583,0.636941524122455
18016,180160205,18,"Nayarit","Tecuala","El Coacoyul",100,-105.612074444444,22.3911508333333,0.315765903662666,0.321807795944166,0.0462209302325581,0.600942486897518,0.404852819912075,0.242310597218002,"adaptive_capacity",0.490136479609793,0.404852819912075
18016,180160300,18,"Nayarit","Tecuala","Villa de Guadalupe",6,-105.501943333333,22.228185,1,1,0.25,0.648856491050018,0.82922328406928,0.0696332069807382,"adaptive_capacity",0.669125931050442,0.82922328406928
18018,180180001,18,"Nayarit","Tuxpan","Tuxpan",22013,-105.298087222222,21.9447902777778,0.379032679925973,0.45530795394019,0.54963492646907,0.261618241216041,0.527121779009694,0.284131388675417,"adaptive_capacity",0.541706642393306,0.527121779009694
18018,180180012,18,"Nayarit","Tuxpan","Palma Grande",2092,-105.389488611111,21.993005,0.466082674950075,0.503249430605695,0.107754478459182,0.645169574125488,0.555091964139752,0.197832088444918,"adaptive_capacity",0.553503806701301,0.555091964139752
18018,180180015,18,"Nayarit","Tuxpan","El Tecomate",118,-105.372802222222,21.9715555555556,1,1,0.125,0.537003552750328,0.747793408634441,-0.0857898558841128,"adaptive_capacity",0.634780730415642,0.747793408634441
18018,180180018,18,"Nayarit","Tuxpan","Unión de Corrientes",1063,-105.430482777778,21.9768497222222,0,0,0.615650374101404,0.679692213120593,0.309212070194071,0.986130517027927,"adaptive_capacity",0.44979746741818,0.309212070194071
18020,180200001,18,"Nayarit","Bahía de Banderas","Valle de Banderas",8730,-105.247924166667,20.80676,0.622393365366629,0.632998038618753,0.127756620676685,0.357469462253168,0.27174680726472,0.213479275665134,"adaptive_capacity",0.433995503270836,0.27174680726472
18020,180200004,18,"Nayarit","Bahía de Banderas","Aguamilpa",601,-105.030386111111,20.9198097222222,0.73292626901074,0.764889817048482,0.214015838104557,0.519487433646493,0.522538335379152,0.210964936371897,"adaptive_capacity",0.539773453987348,0.522538335379152
18020,180200013,18,"Nayarit","Bahía de Banderas","Bucerías",16161,-105.339450833333,20.7562197222222,0.601772149781793,0.608153087174604,0.186024705460079,0.403104408688273,0.265889957763279,0.323239156385073,"adaptive_capacity",0.431525222306501,0.265889957763279
18020,180200024,18,"Nayarit","Bahía de Banderas","Flamingos",503,-105.304221388889,20.7438455555556,0.642616399606111,0.649674611912534,0.125105620167294,0.378922019961006,0.329421145126672,0.174606495001629,"adaptive_capacity",0.458321178519265,0.329421145126672
18020,180200026,18,"Nayarit","Bahía de Banderas","El Colomo",1462,-105.156586111111,20.8684386111111,0.638518603508316,0.65758971760306,0.129249331272766,0.411720201846029,0.336643972056892,0.204325561061903,"adaptive_capacity",0.461367596541449,0.336643972056892
18020,180200027,18,"Nayarit","Bahía de Banderas","Cruz de Huanacaxtle",4169,-105.382682222222,20.7502302777778,0,0,0.936323941783976,0.429108346128012,0.165849954069114,1.19958233384287,"adaptive_capacity",0.389330708560356,0.165849954069114
18020,180200037,18,"Nayarit","Bahía de Banderas","El Guamúchil",675,-105.383553888889,20.8206886111111,0.704145216330258,0.71024537939083,0.125234241803576,0.475698589603122,0.46280869456585,0.138124136840847,"adaptive_capacity",0.514580900435931,0.46280869456585
18020,180200040,18,"Nayarit","Bahía de Banderas","La Compuerta",78,-105.449530555556,20.8329111111111,0.692077301013801,0.698448708510882,0.125128621636282,0.554255020033461,0.501678849884469,0.177704791785273,"adaptive_capacity",0.530975415053507,0.501678849884469
18020,180200041,18,"Nayarit","Bahía de Banderas","Higuera Blanca",1696,-105.466691944444,20.7985144444444,0.596010705264843,0.602942092670134,0.192214219175377,0.530418738444382,0.365850383151827,0.356782574467932,"adaptive_capacity",0.473686171800485,0.365850383151827
18020,180200047,18,"Nayarit","Bahía de Banderas","Las Lomas",135,-105.375116666667,20.9224047222222,0.641837741061521,0.64975987594412,0.125128621636282,0.579596935949256,0.356840741300877,0.34788481628466,"adaptive_capacity",0.46988611739335,0.356840741300877
18020,180200053,18,"Nayarit","Bahía de Banderas","Mezcales",24309,-105.282580277778,20.7285230555556,0.61008449832469,0.617829287511881,0.13436297002123,0.362529400139093,0.247845885525062,0.24904648463526,"adaptive_capacity",0.423914658272343,0.247845885525062
18020,180200066,18,"Nayarit","Bahía de Banderas","Pátzcuaro",18,-105.457748333333,20.8429891666667,0.68048142239114,0.687516469798436,0.125128621636282,0.569405149268524,0.469481557839548,0.225052213065258,"adaptive_capacity",0.517395356760713,0.469481557839548
18020,180200081,18,"Nayarit","Bahía de Banderas","San Francisco",1431,-105.413344166667,20.9022469444444,0.619609568125345,0.628184725561079,0.14259892212545,0.579596869231548,0.351377970477398,0.3708178208796,"adaptive_capacity",0.467582049519582,0.351377970477398
18020,180200082,18,"Nayarit","Bahía de Banderas","San Ignacio",1362,-105.422791111111,20.8472438888889,0.649700753056785,0.656957760472947,0.125128621636282,0.538920989396721,0.411073625335152,0.252975985697851,"adaptive_capacity",0.492760268596633,0.411073625335152
18020,180200087,18,"Nayarit","Bahía de Banderas","San Quintín",236,-105.406124722222,20.8313052777778,0.67996934342359,0.686249402313169,0.125128621636282,0.509050123984041,0.446952286170697,0.187226459449625,"adaptive_capacity",0.507893041406666,0.446952286170697
18020,180200089,18,"Nayarit","Bahía de Banderas","Santa Rita",25,-105.314229444444,20.7668547222222,0.659029547303314,0.666181392005714,0.125105620167294,0.388692025333752,0.378377234775485,0.135420410725562,"adaptive_capacity",0.478969702323396,0.378377234775485
18020,180200092,18,"Nayarit","Bahía de Banderas","Sayulita",3390,-105.440165555556,20.8695080555556,0.60454961382592,0.613523331911362,0.125128621636282,0.572930948032416,0.288256484972996,0.409803084695702,"adaptive_capacity",0.440958895886613,0.288256484972996
18020,180200098,18,"Nayarit","Bahía de Banderas","Tondoroque",831,-105.2949325,20.7448663888889,0.685694877759606,0.691956125912083,0.125105620167294,0.37220574985402,0.400492167479183,0.0968192025421307,"adaptive_capacity",0.488297259275653,0.400492167479183
18020,180200103,18,"Nayarit","Bahía de Banderas","Punta Negra (Careyeros)",28,-105.501666666667,20.7841666666667,0.801587163795939,0.806510398482074,0.168651537246849,0.533892865837194,0.524747913414647,0.177796489669395,"adaptive_capacity",0.540705401881681,0.524747913414647
18020,180200106,18,"Nayarit","Bahía de Banderas","Corral del Risco (Punta de Mita)",2564,-105.511920555556,20.7750969444444,0.5409915338183,0.547839985093603,0.264825636361435,0.527317611106837,0.32693994336601,0.465203304102261,"adaptive_capacity",0.457274666144903,0.32693994336601
18020,180200117,18,"Nayarit","Bahía de Banderas","La Playa Estates",7,-105.424777222222,20.7435558333333,0.621690241405983,0.627923241266614,0.25,0.452640231642528,0.324633806897462,0.378006424745066,"adaptive_capacity",0.456301992181194,0.324633806897462
18020,180200118,18,"Nayarit","Bahía de Banderas","Litibú",36,-105.478206666667,20.8096119444444,0.700174883107799,0.706306318908093,0.142245587422175,0.552055637972475,0.459782301049536,0.234518924345114,"adaptive_capacity",0.513304439039391,0.459782301049536
18020,180200213,18,"Nayarit","Bahía de Banderas","Campestre Real",39,-105.392813888889,20.8980388888889,0.591324565055568,0.600561939389883,0.125128621636282,0.552113300785603,0.313300466088031,0.363941456333854,"adaptive_capacity",0.451521856366373,0.313300466088031
18020,180200217,18,"Nayarit","Bahía de Banderas","Emilio M. González [Colonia]",309,-105.319765277778,20.7687197222222,0.637434611511498,0.644788572055004,0.125105620167294,0.392692926894297,0.361380565539399,0.156417981522192,"adaptive_capacity",0.471800908168678,0.361380565539399
18020,180200236,18,"Nayarit","Bahía de Banderas","Desarrollo Punta Mita",246,-105.529675,20.7809625,0.589254419022266,0.596502583514922,0.277569399033082,0.542613243192652,0.385629556137871,0.434553086087863,"adaptive_capacity",0.482028560401332,0.385629556137871
18020,180200254,18,"Nayarit","Bahía de Banderas","Colibrí [Fraccionamiento]",57,-105.318783055556,20.7607655555556,0.642973117289371,0.650076557606212,0.125105620167294,0.390375073533777,0.353238215072238,0.162242478628834,"adaptive_capacity",0.468366656808963,0.353238215072238
18020,180200270,18,"Nayarit","Bahía de Banderas","Palmarito",240,-105.405882222222,20.8366883333333,0.684910448442386,0.691290411915984,0.125128621636282,0.512359392033386,0.450190418311949,0.187297595357718,"adaptive_capacity",0.50925880916057,0.450190418311949
18020,180200283,18,"Nayarit","Bahía de Banderas","Rancho Dora",27,-105.475114166667,20.7604927777778,0.631166655232683,0.637372622887389,0.228997092321851,0.496019466810718,0.45783290221447,0.267183656918099,"adaptive_capacity",0.512482228594514,0.45783290221447
18020,180200353,18,"Nayarit","Bahía de Banderas","Colonia de Dios",23,-105.392008888889,20.8994355555556,0.610747129559195,0.619683256456141,0.125128621636282,0.553448379835271,0.375729866453252,0.302847135018301,"adaptive_capacity",0.477853104813014,0.375729866453252
18020,180200382,18,"Nayarit","Bahía de Banderas","Los Reyes",20,-105.392090555556,20.9013988888889,0.621782727977578,0.630550854009026,0.125128621636282,0.556714662028443,0.427169890147905,0.25467339351682,"adaptive_capacity",0.499549293404944,0.427169890147905
18020,180200413,18,"Nayarit","Bahía de Banderas","Villa Bali",10,-105.452438055556,20.8592297222222,0.589543196398354,0.598829936501298,0.125128621636282,0.577196350374866,0.318648492485471,0.383676479525677,"adaptive_capacity",0.453777527747908,0.318648492485471
18020,180200434,18,"Nayarit","Bahía de Banderas","Los Almendros",27,-105.315473611111,20.7580830555556,0.711422552057341,0.717405849792873,0.125105620167294,0.387868525414604,0.499810182055307,0.0131639635265919,"adaptive_capacity",0.530187255042581,0.499810182055307
18020,180200459,18,"Nayarit","Bahía de Banderas","Las Parotas [Colonia]",230,-105.322711944444,20.7639427777778,0.630599787639236,0.637945835629257,0.125105620167294,0.393422866918489,0.363696312567969,0.154832174517814,"adaptive_capacity",0.472777635639904,0.363696312567969
18020,180200461,18,"Nayarit","Bahía de Banderas","Nueva Galicia [Colonia]",9,-105.297080555556,20.7570388888889,0.687474418362855,0.694007692096778,0.125105620167294,0.375204716196964,0.465042255425818,0.0352680809384402,"adaptive_capacity",0.515522963719904,0.465042255425818
18020,180200463,18,"Nayarit","Bahía de Banderas","Toscano [Colonia]",107,-105.3135275,20.7588255555556,0.709174845618803,0.714642277748847,0.125105620167294,0.386776934863277,0.461688489561334,0.050194065469237,"adaptive_capacity",0.514108424389189,0.461688489561334
18020,180200476,18,"Nayarit","Bahía de Banderas","Los Gavilanes",13,-105.328683611111,20.7649805555556,1,1,0.125120056599039,0.397714041048465,0.674341701948862,-0.151507604301358,"adaptive_capacity",0.603800533164778,0.674341701948862
18020,180200504,18,"Nayarit","Bahía de Banderas","El Paraíso",5,-105.312375,20.7666766666667,0.643574072109745,0.651086093172154,0.125105620167294,0.387442335071232,0.319516408473074,0.193031546765452,"adaptive_capacity",0.454143594238482,0.319516408473074
18020,180200524,18,"Nayarit","Bahía de Banderas","Real Campestre",7,-105.306657222222,20.7715777777778,0.603579015059518,0.612099450761607,0.125105620167294,0.384687704520225,0.244328095013308,0.265465229674211,"adaptive_capacity",0.422430937214535,0.244328095013308
18020,180200592,18,"Nayarit","Bahía de Banderas","La Compuerta Número 2",22,-105.397616666667,20.8921838888889,0.605250647659573,0.614261857391817,0.125128621636282,0.548546970065907,0.350293251979056,0.323382339723133,"adaptive_capacity",0.467124540844064,0.350293251979056
18020,180200595,18,"Nayarit","Bahía de Banderas","Haixa (Litibú)",41,-105.484969444444,20.7948111111111,0.595307363886862,0.602844713950971,0.162993433181359,0.537360444627673,0.350594382099873,0.349759495709158,"adaptive_capacity",0.467251550425761,0.350594382099873
18020,180200596,18,"Nayarit","Bahía de Banderas","Los Nolasco",11,-105.297918888889,20.7593502777778,0.652138566800646,0.659228963393933,0.125105620167294,0.376109821637153,0.382932539943251,0.118282901861197,"adaptive_capacity",0.480891022589505,0.382932539943251
18020,180200648,18,"Nayarit","Bahía de Banderas","La Piedra [Rancho]",10,-105.449991944444,20.8458080555556,0.6625681479255,0.670205424531989,0.125128621636282,0.564535931507449,0.47720931759456,0.21245523554917,"adaptive_capacity",0.520654743537692,0.47720931759456
18020,180200678,18,"Nayarit","Bahía de Banderas","Brasiles los Cerritos",58,-105.309433055556,20.7631455555556,0.856205651754064,0.859401594983761,0.125105620167294,0.384830614246026,0.60034853933769,-0.0904123049243697,"adaptive_capacity",0.572591962576731,0.60034853933769
18020,180200690,18,"Nayarit","Bahía de Banderas","Agave Azul [Fraccionamiento]",10,-105.312961111111,20.7661022222222,0.619276427912578,0.627240083655541,0.125105620167294,0.387693700119905,0.333762438382976,0.179036881904223,"adaptive_capacity",0.460152233609379,0.333762438382976
2001,20010001,2,"Baja California","Ensenada","Ensenada",330652,-116.595133888889,31.8089438888889,0,0,0.592893387157049,0.463906737598978,0.131821535035,0.924978589721028,"adaptive_capacity",0.374978324097397,0.131821535035
2001,20010095,2,"Baja California","Ensenada","Ejido Eréndira",1711,-116.371395,31.2733236111111,0.782836978978808,0.784296529765289,0.0629650847405444,0.463882500159142,0.581415445058531,-0.0545678601588446,"adaptive_capacity",0.564606430016564,0.581415445058531
2001,20010118,2,"Baja California","Ensenada","Licenciado Gustavo Díaz Ordaz",1640,-116.154443888889,30.9713355555556,0.846657347718829,0.850533978140217,0.00469838850174215,0.443427956108884,0.650855597784087,-0.20272925317346,"adaptive_capacity",0.59389464843437,0.650855597784087
2001,20010124,2,"Baja California","Ensenada","Isla de Cedros",1233,-115.192777777778,28.0955555555556,0.816313986026922,0.824565364279205,0.0325407760265002,0.442617710873321,0.730205304504131,-0.25504681760431,"adaptive_capacity",0.627362482973712,0.730205304504131
2001,20010127,2,"Baja California","Ensenada","Jatay",5,-116.854962222222,32.0264261111111,0.823571415746114,0.820756366788032,0.0143212822280469,0.550449378095168,0.645406562035089,-0.0806359017118734,"adaptive_capacity",0.591596373691026,0.645406562035089
2001,20010139,2,"Baja California","Ensenada","Rodolfo Sánchez Taboada (Maneadero)",27969,-116.571490555556,31.7235508333333,0.795146423392433,0.794708744025674,0.0482087453634429,0.464475736778412,0.553858251662655,-0.0411737695207995,"adaptive_capacity",0.552983455880115,0.553858251662655
2001,20010149,2,"Baja California","Ensenada","El Milagro",33,-116.543251111111,32.0884844444444,0.841811988357405,0.841094118400856,0.021844614859669,0.463203829624131,0.699002970784846,-0.213954526301046,"adaptive_capacity",0.614202074632913,0.699002970784846
2001,20010155,2,"Baja California","Ensenada","Díaz [Rancho]",11,-116.612127777778,31.711625,0.77669987695404,0.77552553376918,0.0659845427081174,0.475762989606316,0.53164538654896,0.0101021457654735,"adaptive_capacity",0.543614593347419,0.53164538654896
2001,20010184,2,"Baja California","Ensenada","Coronel Esteban Cantú",545,-116.640968888889,31.7052275,0.78102843431887,0.779818369256786,0.0890523858075717,0.483393690095383,0.577237569782322,-0.00479149387936739,"adaptive_capacity",0.562844300775639,0.577237569782322
2001,20010186,2,"Baja California","Ensenada","Ejido Punta Colnett (Punta Colonet)",3095,-116.210299166667,31.0703605555556,0.833170832654429,0.835949544463735,0.00301429436879759,0.455996037795937,0.572783585044244,-0.11377325287951,"adaptive_capacity",0.560965715076757,0.572783585044244
2001,20010242,2,"Baja California","Ensenada","Santo Tomás",395,-116.406874166667,31.5515430555556,0.802289428123743,0.803152487319502,0.0010729817995761,0.457101725324318,0.580495960420262,-0.122321253296368,"adaptive_capacity",0.564218613085574,0.580495960420262
2001,20010243,2,"Baja California","Ensenada","San Vicente",5068,-116.250335277778,31.3266233333333,0.825859670892429,0.827824061882217,0.00227530584056827,0.433829932672236,0.549854121073611,-0.113748882560806,"adaptive_capacity",0.551294608049828,0.549854121073611
2001,20010247,2,"Baja California","Ensenada","El Sauzal de Rodríguez",11371,-116.698703055556,31.8962205555556,0.413057679860823,0.410667549182981,0.319975438392694,0.480577838120982,0.439076847801212,0.361476428712464,"adaptive_capacity",0.504571367273646,0.439076847801212
2001,20010254,2,"Baja California","Ensenada","Cuatro Cuatros",10,-116.734636388889,31.9473405555556,0.805997290049793,0.80340513050291,0.021844614859669,0.492302655311095,0.637268318280946,-0.123121048110183,"adaptive_capacity",0.58816385444599,0.637268318280946
2001,20010329,2,"Baja California","Ensenada","La Bufadora",100,-116.713864722222,31.7228866666667,0.812992642015759,0.811220766916643,0.0779082574374925,0.491760027787917,0.599851902638146,-0.0301836174127365,"adaptive_capacity",0.572382492931869,0.599851902638146
2001,20010385,2,"Baja California","Ensenada","Los Cipreses",14,-116.664703888889,31.9517988888889,0.801276712043022,0.799101563435854,0.00064631134321985,0.475012270049076,0.571033629533059,-0.0953750481407624,"adaptive_capacity",0.560227625121287,0.571033629533059
2001,20010544,2,"Baja California","Ensenada","Rancho Percebú",15,-114.702055833333,30.8170722222222,0.796307745268051,0.806007492444188,0.000228658885551201,0.42882327632674,0.72194112462807,-0.292889189415779,"adaptive_capacity",0.623876846843118,0.72194112462807
2001,20010645,2,"Baja California","Ensenada","Punta Cabras",23,-116.439851666667,31.3272405555556,0.835722031466989,0.836359057431234,0.000131859285265028,0.475120239422208,0.70993427498208,-0.234682176274607,"adaptive_capacity",0.618812640888224,0.70993427498208
2001,20010677,2,"Baja California","Ensenada","El Ramajal",67,-116.624831111111,31.6856011111111,0.80677345087971,0.80578773870384,0.0565601837035046,0.481149733774488,0.611828901508819,-0.0741189840308263,"adaptive_capacity",0.577434108533875,0.611828901508819
2001,20010678,2,"Baja California","Ensenada","El Aguaje",15,-116.637183333333,31.7020627777778,0.809796167049194,0.808710688138218,0.074765752597974,0.482658999436928,0.582600593449599,-0.0251758414146966,"adaptive_capacity",0.565106297651825,0.582600593449599
2001,20010684,2,"Baja California","Ensenada","Campo la Roca",14,-114.707041111111,30.7106411111111,0.766339922564465,0.774303816863776,0.0009843328253436,0.418213894832443,0.65998063860106,-0.240782410943273,"adaptive_capacity",0.597743375403263,0.65998063860106
2001,20010732,2,"Baja California","Ensenada","El Sauco",14,-116.388730555556,31.5432783333333,0.783335259012502,0.784172387965552,0.0204034314373629,0.453665717178188,0.561328801787866,-0.0872596531723153,"adaptive_capacity",0.556134357702482,0.561328801787866
2001,20010736,2,"Baja California","Ensenada","Puerto San Isidro",109,-116.402586111111,31.2892277777778,0.759006080161546,0.759923030237141,0.0555141460564956,0.470175553441183,0.617786601469999,-0.0920969019723211,"adaptive_capacity",0.579946925843198,0.617786601469999
2001,20010769,2,"Baja California","Ensenada","San Marcos",13,-116.443640555556,32.1418702777778,0.85138538656749,0.851110488501552,0.00517742610800684,0.439699876879404,0.748670734155793,-0.303793431168382,"adaptive_capacity",0.635150765625594,0.748670734155793
2001,20010848,2,"Baja California","Ensenada","Campo Zaguaro",55,-114.707596944444,30.7182986111111,0.777839433361602,0.786088480865018,0.00091284797972176,0.418728218955832,0.693355983082878,-0.273714916147325,"adaptive_capacity",0.611820308425233,0.693355983082878
2001,20010861,2,"Baja California","Ensenada","El Salto",19,-116.779842777778,32.0394988888889,0.812839877585838,0.810223070633285,0.0186929515114559,0.532717601836325,0.636368343332264,-0.084957789984483,"adaptive_capacity",0.587784266241861,0.636368343332264
